property_id,street_name,city,state,latitude,longitude,postcode,price,bedroom_number,bathroom_number,price_per_unit,living_space,land_space,land_space_unit,property_type,agency_name
2066966109,Reservoir,Hawley,NY,,,18428,375000,,,,,63.6,acres,LOT,Listing by: Keyology Group Llc
29962801,County Road 64,Elmira,NY,42.142677,-76.90204,14903,189900,4,2,110,1714,0.49,acres,SINGLE_FAMILY,Listing by: Howard Hanna Horseheads
29962922,Brookside Cir,Elmira,NY,42.131203,-76.91786,14903,284900,4,3,112,2533,0.586,acres,SINGLE_FAMILY,Listing by: Howard Hanna Corning Denison
29971014,Elmwood Ave,Elmira Heights,NY,42.131638,-76.82242,14903,119900,3,1,109,1100,10454.4,sqft,SINGLE_FAMILY,Listing by: Howard Hanna Elmira
29974158,Kentucky Ave,Elmira Heights,NY,42.142487,-76.827705,14903,124900,4,2,67,1864,0.275,acres,SINGLE_FAMILY,Listing by: Howard Hanna Elmira
29970967,Elmwood Ave,Elmira,NY,42.130344,-76.822685,14903,74900,3,2,71,1054,5662.8,sqft,SINGLE_FAMILY,Listing by: Howard Hanna Elmira
2064305515,County Route 64,Elmira,NY,42.142715,-76.90277,14903,139900,,,,0,10.27,acres,LOT,Listing by: Henry Dunn Inc. Elmira
29965815,Thornapple Dr,Elmira,NY,42.098663,-76.85376,14903,525000,4,3,137,3832,6.51,acres,SINGLE_FAMILY,Listing by: Signature Properties
29974802,Benedict Blvd,Horseheads,NY,42.12696,-76.86054,14903,329900,5,3,102,3214,5.9,acres,SINGLE_FAMILY,Listing by: Howard Hanna Horseheads
29973808,Philo Rd,Elmira,NY,42.146763,-76.83534,14903,192500,2,1,143,1345,0.44,acres,SINGLE_FAMILY,Listing by: Realmart
29971268,W 14th St,Elmira Heights,NY,42.12804,-76.83122,14903,93500,4,2,46,1994,5662.8,sqft,SINGLE_FAMILY,Listing by: Howard Hanna Horseheads
29965323,Oakwood Ave,Elmira Heights,NY,42.124393,-76.827,14903,165000,4,2,90,1819,8058.6,sqft,SINGLE_FAMILY,Listing by: KENARRI real estate division
29970866,W 17th St,Elmira Heights,NY,42.13035,-76.83251,14903,54900,4,1,42,1288,7405.2,sqft,SINGLE_FAMILY,Listing by: Richard Winters Real Estate
29963040,Halderman Hollow Rd,Elmira,NY,42.138817,-76.883385,14903,329900,3,3,141,2326,1.14,acres,SINGLE_FAMILY,Listing by: Howard Hanna Horseheads
29971201,W 13th St,Elmira Heights,NY,42.126305,-76.83417,14903,159000,5,3,93,1700,0.331,acres,SINGLE_FAMILY,Listing by: Howard Hanna Horseheads
29965792,Estates Dr,Elmira,NY,42.098644,-76.84173,14903,549900,5,5,167,3291,5.2,acres,SINGLE_FAMILY,Listing by: Warren Real Estate
212493484,Maricle Ln,Elmira,NY,42.09521,-76.91782,14903,445000,3,3,208,2138,4.8,acres,SINGLE_FAMILY,Listing by: Keller Williams Realty Southern Tier&Finger Lakes
29965818,Thornapple Dr,Elmira,NY,42.09762,-76.853355,14903,495000,4,4,123,3999,5.28,acres,SINGLE_FAMILY,Listing by: Howard Hanna Elmira
29974211,Upper Oakwood Ave,Elmira,NY,42.140675,-76.824005,14903,120000,2,1,109,1100,0.43,acres,SINGLE_FAMILY,Listing by: Keller Williams Realty Southern Tier&Finger Lakes
29971357,W 11th St,Elmira,NY,42.12622,-76.82651,14903,144900,4,3,42,3406,6000,sqft,SINGLE_FAMILY,Listing by: Howard Hanna Horseheads
29965608,W Hill Rd,Elmira,NY,42.10815,-76.839165,14903,159900,3,2,128,1248,0.4017,acres,SINGLE_FAMILY,Listing by: Warren Real Estate-Corning
29965526,Hope St,Elmira,NY,42.120903,-76.821724,14903,80900,2,2,85,946,6011.28,sqft,SINGLE_FAMILY,Listing by: Signature Properties
29971078,Lounsbury Ave,Elmira Heights,NY,42.133446,-76.81671,14903,28000,1,1,25,1088,4704.48,sqft,SINGLE_FAMILY,Listing by: Warren Real Estate
29971006,Lynwood Ave,Elmira,NY,42.130527,-76.825005,14903,89000,3,2,69,1288,8712,sqft,SINGLE_FAMILY,Listing by: Keller Williams Realty Southern Tier&Finger Lakes
29974362,Lenox Ave,Elmira,NY,42.13976,-76.82582,14903,185000,3,1,123,1504,0.42,acres,SINGLE_FAMILY,Listing by: Keller Williams Realty Southern Tier&Finger Lakes
29971448,Scottwood Ave,Elmira,NY,42.127888,-76.820206,14903,79900,6,2,30,2652,5227.2,sqft,MULTI_FAMILY,Listing by: Keller Williams Realty Southern Tier&Finger Lakes
29971447,Scottwood Ave,Elmira,NY,42.12775,-76.820175,14903,74900,3,1,42,1757,4791.6,sqft,SINGLE_FAMILY,Listing by: Keller Williams Realty Southern Tier&Finger Lakes
29974087,W Lenox Ave,Elmira,NY,42.143147,-76.832466,14903,109000,2,1,100,1088,8712,sqft,SINGLE_FAMILY,Listing by: Keller Williams Realty Southern Tier&Finger Lakes
29970909,W 15th St,Elmira,NY,42.129265,-76.82875,14903,99000,4,2,67,1460,8712,sqft,SINGLE_FAMILY,Listing by: Keller Williams Realty Southern Tier&Finger Lakes
2071566206,McCauley Ave,Elmira,NY,,,14903,89900,3,1,57,1571,0.275,acres,SINGLE_FAMILY,Listing by: Howard Hanna Elmira
53169507,Quail Run,Elmira,NY,42.130833,-76.902084,14903,495000,4,3,167,2959,32.42,acres,SINGLE_FAMILY,Listing by: Howard Hanna Corning Market St.
29965429,W McCanns Blvd,Elmira Heights,NY,42.119316,-76.82551,14903,74900,3,2,64,1162,7013.16,sqft,SINGLE_FAMILY,Listing by: Howard Hanna Horseheads
29971304,Elmwood Ave,Elmira Heights,NY,42.128582,-76.822014,14903,45000,,,21,2106,6000,sqft,MULTI_FAMILY,Listing by: Howard Hanna Horseheads
2067108869,County Route 64,Elmira,NY,42.14371,-76.90202,14903,159990,3,2,151,1056,0.663,acres,SINGLE_FAMILY,Listing by: MJ Peterson Real Estate Inc.
29971105,Ohanlon Ave,Elmira Heights,NY,42.131718,-76.81718,14903,168000,,,57,2910,7875,sqft,MULTI_FAMILY,Listing by: Keller Williams Realty (Stfl)
29965627,Hillcrest Rd,Elmira,NY,42.103752,-76.85343,14903,485000,6,6,106,4549,4.19,acres,SINGLE_FAMILY,Listing by: Keller Williams Realty Southern Tier&Finger Lakes
55751345,Benedict Blvd,Elmira,NY,42.130753,-76.86015,14903,799999,3,3,295,2706,28.42,acres,SINGLE_FAMILY,Listing by: Four Seasons Sotheby's Int'l
29971314,College Ave,Elmira,NY,42.126854,-76.82487,14903,49999,6,2,20,2394,7000,sqft,MULTI_FAMILY,Listing by: Warren Real Estate
2066661149,Valley View Dr,Elmira,NY,42.138504,-76.89902,14903,90500,,,,0,5.01,acres,LOT,Listing by: Howard Hanna Horseheads
2067393794,Hibbard Rd,Elmira,NY,42.14113,-76.92708,14903,29900,,,,0,7.159,acres,LOT,Listing by: Howard Hanna Horseheads
2072175941,State Rte #70,Swain,NY,,,14884,59500,,0,,,17.51,acres,LOT,Listing by: Howard Hanna
2070469519,Isaman Hill Rd,Swain,NY,42.46052,-77.84611,14884,119000,,0,,0,79.4,acres,LOT,Listing by: RE/MAX Realty Group
29630399,Blakley Rd,Swain,NY,42.44889,-77.907036,14884,29900,2,1,,,9.1,acres,LOT,Listing by: Landquest Inc.
2075833919,Co Rd,Swain,NY,,,14884,16500,,0,,,1.058,acres,LOT,Listing by: Empire Realty Group
32594344,Miller Rd,Rexville,NY,42.004616,-77.636314,14877,399900,,,,0,174.4,acres,LOT,"Listing by: LandQuest, Inc."
2064119039,Vl Sr #248,Rexville,NY,,,14877,269900,,0,,,153.7,acres,LOT,Listing by: WHITETAIL PROPERTIES REAL ESTATE LLC
209316294,King Hill Rd,Rexville,NY,42.102177,-77.69026,14877,224900,,0,,,129,acres,LOT,Listing by: WHITETAIL PROPERTIES REAL ESTATE LLC
299733022,Aspen Rd,Rexville,NY,42.08347,-77.693855,14877,112999,1,1,144,780,7.14,acres,SINGLE_FAMILY,Listing by: MJ Peterson Real Estate Inc.
2068447106,Loomis Rd,Rexville,NY,42.09455,-77.65606,14877,259900,,,,0,142,acres,LOT,"Listing by: LandQuest, Inc."
32594184,Keenan Rd,Rexville,NY,42.08124,-77.693954,14877,128500,2,1,118,1080,5.02,acres,SINGLE_FAMILY,Listing by: Keller Williams Realty Greater Rochester
2065686273,Shamrock Rd,Rexville,NY,42.045116,-77.7378,14877,249900,,0,,,125,acres,LOT,Listing by: Landquest Inc.
2065639384,Shamrock Rd W,Rexville,NY,42.047104,-77.74214,14877,224900,1,1,160,1404,32.1,acres,SINGLE_FAMILY,Listing by: Landquest Inc.
2066689821,Irish Hill Rd,Rexville,NY,42.06876,-77.68329,14877,299900,3,1,180,1664,85,acres,SINGLE_FAMILY,"Listing by: LandQuest, Inc."
2068588512,Maple Rd,Rexville,NY,42.052017,-77.71539,14877,209900,1,1,272,770,60,acres,SINGLE_FAMILY,Listing by: Howard Hanna
2093692283,Slocum Rd,Rexville,NY,42.01891,-77.70959,14877,69900,,0,,,20.9,acres,LOT,Listing by: Howard Hanna Professionals-Coudersport
2064173983,Macdowell Rd,Odessa,NY,42.33751,-76.79196,14869,39900,,,,0,1.45,acres,LOT,Listing by: Cabins to Castles
2064388180,Texas Hollow Rd,Odessa,NY,,,14869,39900,,,,0,1.35,acres,LOT,Listing by: Cabins to Castles
2064174009,Cotton Hanlon Rd LOT 3,Odessa,NY,42.340157,-76.80071,14869,39900,,,,0,1.33,acres,LOT,Listing by: Cabins to Castles
2064174023,Cotton Hanlon Rd LOT 1,Odessa,NY,42.340157,-76.80071,14869,39900,,,,0,1.39,acres,LOT,Listing by: Cabins to Castles
32788696,Church St,Odessa,NY,42.32944,-76.789894,14869,164900,3,2,110,1492,1,acres,SINGLE_FAMILY,Listing by: Warren Real Estate - Watkins Glen
2067275197,E Main St,Odessa,NY,42.336597,-76.78904,14869,15000,,0,,,6098.4,sqft,LOT,Listing by: Warren Real Estate of Ithaca
66482959,Lockwood Run Rd,Lockwood,NY,42.10533,-76.57874,14859,85000,3,2,52,1620,2.39,acres,SINGLE_FAMILY,Listing by: Warren Real Estate-Waverly
66528647,Ridge Rd,Lockwood,NY,42.106895,-76.51849,14859,199500,3,1,92,2160,41.7,acres,SINGLE_FAMILY,Listing by: Coldwell Banker Preferred Properties
2067901435,Hunters Brae Rd,Lockwood,NY,,,14859,1250000,3,4,207,6021,,,SINGLE_FAMILY,Listing by: EXIT REALTY HOMEWARD BOUND
2105768330,Ellison Rd,Lockwood,NY,42.10393,-76.5433,14859,19900,,0,,,3.9,acres,LOT,Listing by: Landquest Inc.
305043615,Ridge Rd,Lockwood,NY,42.124382,-76.501144,14859,249000,3,2,207,1200,69,acres,SINGLE_FAMILY,Listing by: Warren Real Estate
2071335225,& 0 Lockwood Run Rd,Lockwood,NY,42.106525,-76.57974,14859,335000,,0,,,183.84,acres,LOT,Listing by: Laurel Country Properties
2095842026,Lockwood Run Rd,Lockwood,NY,42.120865,-76.584595,14859,335000,,,,0,183.74,acres,LOT,"Listing by: Laurel Management, Inc."
2065425571,Hall Rd,Himrod,NY,42.593945,-76.92145,14842,39900,2,1,134,297,2613.6,sqft,SINGLE_FAMILY,Listing by: Keller Williams Realty Gateway
2067749576,Plum Point Rd #16,Himrod,NY,42.59787,-76.92428,14842,249900,3,2,221,1128,4791.6,sqft,SINGLE_FAMILY,Listing by: Keller Williams Realty Gateway
2067749656,Plum Point Rd LOT 17,Himrod,NY,42.59787,-76.92428,14842,254900,3,2,209,1214,5662.8,sqft,SINGLE_FAMILY,Listing by: Keller Williams Realty Gateway
2067773477,Plum Point Rd LOT 15,Himrod,NY,42.59787,-76.92428,14842,264900,2,2,210,1260,4791.6,sqft,SINGLE_FAMILY,Listing by: Keller Williams Realty Gateway
2065782801,McMahon Rd,Canaseraga,NY,42.381695,-77.91596,14822,219900,,0,,,123.6,acres,LOT,Listing by: WHITETAIL PROPERTIES REAL ESTATE LLC
2064278764,Town Line Rd,Canaseraga,NY,,,14822,78900,1,1,205,384,9.2,acres,SINGLE_FAMILY,Listing by: Landquest Inc.
2065882697,Hiltonville Rd,Canaseraga,NY,42.39187,-77.90089,14822,60000,2,1,44,1344,1.8,acres,SINGLE_FAMILY,Listing by: Howard Hanna
2076441662,Allen Birdsall Townline Rd,Canaseraga,NY,,,14822,179900,,0,,,60.9,acres,LOT,"Listing by: Recckio R.E. & Development,Inc"
2064206871,Myers Rd,Bradford,NY,42.36612,-77.13765,14815,164900,,,,0,46.96,acres,LOT,Listing by: Keuka Lake & Land Realty Bath
32793169,Koziatek Rd,Bradford,NY,42.38801,-77.088394,14815,349000,3,3,279,1248,3.25,acres,SINGLE_FAMILY,Listing by: Keller Williams Realty Gateway
32793142,W Lake Rd,Bradford,NY,42.382015,-77.10182,14815,259000,2,1,237,1092,45.64,acres,SINGLE_FAMILY,"Listing by: Wine Trail Properties, LLC"
32795027,Huggins Rd,Bradford,NY,42.391876,-77.07946,14815,510000,3,2,227,2240,4.3,acres,SINGLE_FAMILY,Listing by: Howard Hanna Lake Group
32793358,Goundry Hill Rd,Bradford,NY,42.34184,-77.08791,14815,199900,3,2,141,1416,55,acres,SINGLE_FAMILY,Listing by: Warren Real Estate
2068033866,Yawger Hill Rd,Bradford,NY,42.343914,-77.097176,14815,450000,,,252,1780,163,acres,LOT,Listing by: Keuka Lake & Land Realty Bath
2068654580,McNutt Runrd,Bradford,NY,,,14815,79900,4,1,31,2532,1.91,acres,SINGLE_FAMILY,Listing by: Richard Winters Real Estate
2065582815,Westlake Rd,Bradford,NY,,,14815,77500,,,,0,5,acres,LOT,Listing by: Howard Hanna Lake Group Hammondsport
2067827386,State Route 226 NE,Bradford,NY,42.366737,-77.10056,14815,245675,,0,,,98.27,acres,LOT,Listing by: Howard Hanna
32584715,State Route 36,Arkport,NY,42.38891,-77.69559,14807,174900,4,2,85,2051,0.25,acres,SINGLE_FAMILY,Listing by: Howard Hanna
32585122,State Route 36,Arkport,NY,42.385723,-77.69261,14807,149000,2,1,91,1634,0.69,acres,SINGLE_FAMILY,Listing by: Howard Hanna
32584764,Clover Ter,Arkport,NY,42.389324,-77.68812,14807,229000,4,3,164,1393,0.3,acres,SINGLE_FAMILY,Listing by: Howard Hanna
32583010,County Route 46,Arkport,NY,42.426945,-77.64347,14807,289900,3,3,175,1650,7,acres,SINGLE_FAMILY,Listing by: Howard Hanna
32585192,Knoll Top Ct,Arkport,NY,42.38371,-77.66909,14807,349600,4,3,124,2817,4.1,acres,SINGLE_FAMILY,Listing by: SVR Realty LLC
32584734,Holly Ct,Arkport,NY,42.390007,-77.68677,14807,249900,5,4,102,2430,7810.308,sqft,SINGLE_FAMILY,Listing by: Howard Hanna
32584589,Hurlbut St,Arkport,NY,42.39394,-77.69869,14807,40000,3,1,55,720,8868.816,sqft,MANUFACTURED,Listing by: Howard Hanna
71200676,Knoll Top Ct,Arkport,NY,42.384468,-77.668015,14807,199000,3,3,139,1428,0.75,acres,SINGLE_FAMILY,Listing by: Howard Hanna
32580583,County Route 46,Arkport,NY,42.47504,-77.65563,14807,129900,3,2,70,1852,10.68,acres,SINGLE_FAMILY,Listing by: Wine Country Real Estate of NY
61999852,Ellis Hill Rd,Arkport,NY,42.38794,-77.730125,14807,139500,3,2,103,1352,2,acres,MANUFACTURED,Listing by: Keller Williams Southern Tier
2067712603,L B Rd,Arkport,NY,42.46057,-77.75055,14807,222900,3,2,161,1380,0.47,acres,SINGLE_FAMILY,Listing by: Howard Hanna
2075811949,County Route 67,Arkport,NY,42.392334,-77.70333,14807,189900,,0,,,99.5,acres,LOT,Listing by: Landquest Inc.
29926806,W Main St,Sherman,NY,42.15903,-79.5985,14781,59000,3,1,30,1908,8028.108,sqft,SINGLE_FAMILY,Listing by: Century 21 Turner Brokers
2068378686,Mina French Creek Rd,Sherman,NY,42.12118,-79.691124,14781,229800,3,2,172,1336,15,acres,SINGLE_FAMILY,Listing by: Howard & Associates RE-APP-AUCT
29926776,Park St,Sherman,NY,42.162548,-79.58559,14781,159000,4,2,84,1888,0.4939,acres,SINGLE_FAMILY,Listing by: Century 21 Turner Brokers
29926745,Edmunds St,Sherman,NY,42.162933,-79.58782,14781,109500,4,2,27,3969,0.6158,acres,SINGLE_FAMILY,Listing by: Century 21 Turner Brokers
2070272306,Park St,Sherman,NY,42.161743,-79.59858,14781,17500,,0,,,0.6705,acres,LOT,Listing by: Century 21 Turner Brokers
29629398,Portville Obi Rd,Portville,NY,42.059177,-78.304756,14770,59000,3,1,61,960,2.2,acres,MANUFACTURED,Listing by: Howard Hanna Professionals
29880772,W Carroll Rd,Portville,NY,42.005,-78.33581,14770,169900,3,2,95,1788,6.3,acres,SINGLE_FAMILY,Listing by: Howard Hanna Professionals
29629424,Deer Creek Rd,Portville,NY,42.046974,-78.28453,14770,395000,4,2,136,2896,3.5,acres,SINGLE_FAMILY,Listing by: Premier Listings Real Estate LLC
29880882,Prosser Rd,Portville,NY,42.01265,-78.315834,14770,149000,3,2,106,1404,9748.728,sqft,SINGLE_FAMILY,Listing by: Howard Hanna Professionals
29880629,Portville Olean Rd,Portville,NY,42.050804,-78.35385,14770,135000,3,1,120,1120,0.7355,acres,SINGLE_FAMILY,Listing by: ERA Team VP Real Estate
2100132799,Coon Hollow Rd,Portville,NY,42.07403,-78.24531,14770,22900,,0,,,9.8,acres,LOT,Listing by: Landquest Inc.
29879685,Temple St,Portville,NY,42.039272,-78.3393,14770,79900,2,2,64,1237,6576,sqft,SINGLE_FAMILY,Listing by: Southern Tier Realty Co. Inc.
212378602,Yubadam Rd,Portville,NY,42.096313,-78.31596,14770,9900,,0,,,1.7,acres,LOT,Listing by: Hunt Real Estate ERA
2118766733,E Lake Rd APT 11,Dewittville,NY,42.22908,-79.43959,14728,180000,2,2,183,980,958.32,sqft,CONDO,Listing by: Howard Hanna Holt - Mayville
305322764,Brown Rd,Bemus Pt,NY,42.17567,-79.384766,14712,899000,,0,899,1000,44.4,acres,LOT,Listing by: Century 21 Turner Brokers
2065606796,S Frontage Rd,Bemus Pt,NY,42.167267,-79.388885,14712,499900,3,4,143,3495,1,acres,SINGLE_FAMILY,Listing by: Century 21 Turner Brokers
29905228,Magnolia Springs Rd,Mayville,NY,42.178043,-79.444374,14757,395000,2,2,419,942,0.287,acres,SINGLE_FAMILY,Listing by: Real Estate Advantage
89598600,Maple Springs Ellery Rd,Bemus Pt,NY,42.19623,-79.40951,14712,585000,4,5,367,1590,8.1,acres,SINGLE_FAMILY,Listing by: ERA Team VP Real Estate
2078216868,Broadway Rd,Bemus Pt,NY,42.191166,-79.41202,14712,22500,,0,,,0.4964,acres,LOT,Listing by: Century 21 Turner Brokers
29917852,Route 394,Mayville,NY,42.17252,-79.44562,14757,80000,2,2,83,960,2,acres,MANUFACTURED,Listing by: EXP Realty
212365309,Sullivan Hollow Rd,Kill Buck,NY,42.151226,-78.645905,14748,90000,,0,,,5,acres,LOT,Listing by: eXp Realty
2066824766,Sullivan Hollow Extension Ext,Great Valley,NY,42.154984,-78.63627,14741,21000,,0,,,5,acres,LOT,Listing by: eXp Realty
2066824765,Sullivan Hollow Extension Ext,Great Valley,NY,42.154984,-78.63627,14741,21000,,0,,,5,acres,LOT,Listing by: eXp Realty
2066824764,Sullivan Hollow Extension Ext,Great Valley,NY,42.15254,-78.637405,14741,21000,,0,,,5,acres,LOT,Listing by: eXp Realty
2066824789,Sullivan Hollow Extension Ext,Great Valley,NY,42.154984,-78.63627,14741,21000,,0,,,5,acres,LOT,Listing by: eXp Realty
2071751266,Sullivan Hollow Rd,Kill Buck,NY,,,14748,20000,,0,,,5,acres,LOT,Listing by: eXp Realty
29871438,Thorpe Hollow Rd,Kill Buck,NY,42.133057,-78.64388,14748,184900,3,1,157,1176,5.32,acres,SINGLE_FAMILY,Listing by: Keller WilliamsRealtyLancaster
2064205990,Old Chautauqua Rd,Gerry,NY,42.247192,-79.14244,14740,225000,,0,,,77,acres,LOT,Listing by: Timberland Realty
202316419,Old Chautauqua Rd,Gerry,NY,42.234646,-79.19839,14740,195000,,0,,,124,acres,LOT,Listing by: Timberland Realty
29913043,Gerry Levant Rd,Gerry,NY,42.17978,-79.23113,14740,189900,3,2,121,1568,3,acres,SINGLE_FAMILY,Listing by: Keller Williams Realty
29912914,Melvin Ln,Gerry,NY,42.197197,-79.243195,14740,169900,3,2,103,1637,1.6,acres,SINGLE_FAMILY,Listing by: Century 21 Turner Brokers
83925175,Canterbury Dr,Clymer,NY,42.064194,-79.7458,14724,329000,3,4,198,1660,5227.2,sqft,TOWNHOUSE,Listing by: Howard Hanna Holt - Mayville
83925151,Old Road Camelot UNIT 4401,Clymer,NY,42.059834,-79.73394,14724,125000,1,1,250,500,435.6,sqft,CONDO,Listing by: ERA Team VP Real Estate
202294280,W Mina Rd,Clymer,NY,42.10063,-79.75379,14724,1975000,4,4,361,5462,59.9,acres,SINGLE_FAMILY,Listing by: Real Estate Advantage
29912419,Reagan Rd,Clymer,NY,42.07111,-79.678535,14724,249900,6,3,89,2798,2.8,acres,SINGLE_FAMILY,Listing by: Keller Williams Realty
2064210698,Shadyside Rd,Clymer,NY,42.09341,-79.721596,14724,449000,4,1,246,1824,0.27,acres,SINGLE_FAMILY,Listing by: Real Estate Advantage
202315344,Clymer Sherman Rd,Clymer,NY,42.022125,-79.63033,14724,119900,4,2,71,1676,0.2904,acres,SINGLE_FAMILY,Listing by: ERA Team VP Real Estate
29905865,E Main St,Clymer,NY,42.021282,-79.6174,14724,105000,3,2,37,2780,2.109,acres,SINGLE_FAMILY,Listing by: Howard Hanna
83926790,Route 474,Clymer,NY,42.023884,-79.71438,14724,328500,2,2,228,1436,35.5,acres,SINGLE_FAMILY,Listing by: Howard & Associates RE-APP-AUCT
29906011,Clymer Hill Rd,Clymer,NY,42.026466,-79.614586,14724,305000,3,2,104,2912,5,acres,SINGLE_FAMILY,Listing by: Marsha Marsh Real Estate
29917391,W Mina Rd,Clymer,NY,42.106155,-79.75498,14724,639500,4,4,266,2403,8,acres,SINGLE_FAMILY,Listing by: Howard & Associates RE-APP-AUCT
215715441,State Route 19,Caneadea,NY,42.39095,-78.15742,14717,299900,3,3,162,1848,2.04,acres,SINGLE_FAMILY,Listing by: Landquest Inc.
124183914,State Route 19,Caneadea,NY,42.388794,-78.15324,14717,117900,5,3,47,2496,0.33,acres,SINGLE_FAMILY,Listing by: Landquest Inc.
29626035,State Route 19,Caneadea,NY,42.38727,-78.15385,14717,26000,3,1,16,1564,0.28,acres,SINGLE_FAMILY,Listing by: CENTURY 21 Gold Standard
29623095,County Road 16,Angelica,NY,42.318565,-77.9526,14709,149900,2,2,95,1572,1,acres,SINGLE_FAMILY,Listing by: Keller Williams Southern Tier
2064180162,Gillies Hill Rd,Angelica,NY,42.392857,-77.931755,14709,44900,,0,,,19.4,acres,LOT,Listing by: Landquest Inc.
29624047,County Road 16,Angelica,NY,42.389847,-77.92514,14709,85900,1,1,57,1500,8.8,acres,SINGLE_FAMILY,Listing by: Landquest Inc.
29623016,Peavy Rd,Angelica,NY,42.324642,-78.0467,14709,299000,4,2,115,2592,11.1,acres,SINGLE_FAMILY,Listing by: Homestar Realty
2066571046,Gillies Hill Rd,Angelica,NY,42.393044,-77.945335,14709,78900,2,1,74,1056,2.4,acres,SINGLE_FAMILY,Listing by: Landquest Inc.
2075833702,County Road 16,Angelica,NY,,,14709,43900,,0,,,19.8,acres,LOT,Listing by: Landquest Inc.
2067054934,Old State Rd,Angelica,NY,42.298992,-78.05477,14709,98900,,0,,,30.458,acres,LOT,Listing by: Landquest Inc.
2067786908,County Road 2,Angelica,NY,42.298595,-77.97827,14709,85000,,0,,,49.1,acres,LOT,Listing by: Landquest Inc.
2068579165,Old York Dr,Angelica,NY,42.367687,-77.918915,14709,59900,2,1,83,720,5,acres,SINGLE_FAMILY,Listing by: Landquest Inc.
237421312,Barclay Square Dr,Rochester,NY,43.118538,-77.58396,14618,459900,5,4,176,2609,0.33,acres,SINGLE_FAMILY,Listing by: Hunt Real Estate ERA/Columbus
30906705,French Rd,Rochester,NY,43.098198,-77.572464,14618,174900,3,3,136,1280,3920.4,sqft,TOWNHOUSE,Listing by: Geraci Realty
30897458,Elmerston Rd,Rochester,NY,43.116287,-77.62361,14620,239900,4,3,151,1586,5662.8,sqft,SINGLE_FAMILY,Listing by: Revolution Real Estate
30963075,Gloucester Cir,Rochester,NY,43.069206,-77.610825,14623,189900,3,2,124,1524,9600.624,sqft,SINGLE_FAMILY,"Listing by: eXp Realty, LLC"
30961128,Surrey Hill Way,Rochester,NY,43.090908,-77.57381,14623,209900,2,3,134,1565,5227.2,sqft,TOWNHOUSE,Listing by: Paragon Choice Realty LLC
103731898,Covington Woods,Pittsford,NY,43.069283,-77.563934,14534,795000,4,3,282,2810,0.5,acres,SINGLE_FAMILY,Listing by: Spall Realty Corp
30905955,Viennawood Dr,Rochester,NY,43.106922,-77.56899,14618,259900,3,2,183,1418,0.47,acres,SINGLE_FAMILY,Listing by: Howard Hanna
30963861,Galahad Dr,Rochester,NY,43.06157,-77.60704,14623,189900,4,2,114,1664,0.37,acres,SINGLE_FAMILY,Listing by: RE/MAX Plus
30897089,Westview Ter,Rochester,NY,43.12304,-77.6168,14620,210000,3,2,160,1307,4408.272,sqft,SINGLE_FAMILY,Listing by: Keller Williams Realty Greater Rochester
30963410,Cape Cod Way,Rochester,NY,43.06502,-77.59364,14623,179900,3,1,172,1040,0.36,acres,SINGLE_FAMILY,Listing by: RE/MAX Titanium LLC
30897258,Fort Hill Ter,Rochester,NY,43.12174,-77.61665,14620,149900,3,2,109,1364,3598.056,sqft,SINGLE_FAMILY,"Listing by: eXp Realty, LLC"
30905085,Sunnyside Dr,Rochester,NY,43.105556,-77.62593,14623,195000,3,1,129,1506,0.25,acres,SINGLE_FAMILY,Listing by: Howard Hanna
30897269,Boothe St,Rochester,NY,43.11967,-77.617226,14620,242500,5,2,148,1631,0.2755,acres,SINGLE_FAMILY,Listing by: Eastman Property Management
30897083,Westview Ter,Rochester,NY,43.122387,-77.61707,14620,232900,4,2,131,1768,5671.512,sqft,SINGLE_FAMILY,Listing by: Eastman Property Management
30959574,Hollybrook Rd,Rochester,NY,43.075756,-77.59788,14623,129900,3,2,129,1000,0.3444,acres,SINGLE_FAMILY,Listing by: Keller Williams Realty Greater Rochester
70908029,Harvest Gln,Pittsford,NY,43.063053,-77.56891,14534,729000,5,5,177,4114,0.52,acres,SINGLE_FAMILY,Listing by: The Greene Realty Group
237493724,Prentiss Way,Henrietta,NY,43.0552,-77.62799,14467,189900,4,2,108,1758,0.27,acres,SINGLE_FAMILY,Listing by: Keller Williams Realty Greater Rochester
30896124,Shelbourne Rd,Rochester,NY,43.116646,-77.6252,14620,199900,3,1,165,1210,6076.62,sqft,SINGLE_FAMILY,Listing by: Keller Williams Realty Greater Rochester
30906503,Eastbrooke Ln,Rochester,NY,43.101646,-77.57551,14618,125000,2,1,123,1012,3484.8,sqft,TOWNHOUSE,Listing by: Keller Williams Realty Greater Rochester
299458738,Willowford Dr,Henrietta,NY,43.052006,-77.613174,14467,433900,2,3,222,1949,,,SINGLE_FAMILY,Listing by: Marrano Marc/Equity Corp
299458988,Parkglen Dr,Henrietta,NY,43.051376,-77.612854,14467,419900,2,2,243,1727,,,SINGLE_FAMILY,Listing by: Marrano Marc/Equity Corp
30961202,Chasewood Cir,Rochester,NY,43.087734,-77.573875,14618,239900,2,2,143,1671,2874.96,sqft,TOWNHOUSE,Listing by: RE/MAX Realty Group
30906723,French Rd,Rochester,NY,43.09883,-77.57351,14618,159900,2,2,124,1280,3920.4,sqft,TOWNHOUSE,Listing by: Keller Williams Realty Greater Rochester
30961109,Surrey Hill Way,Rochester,NY,43.09062,-77.57475,14623,149000,2,3,116,1280,5227.2,sqft,TOWNHOUSE,Listing by: Coldwell Banker Custom Realty
30904916,Southland Dr,Rochester,NY,43.110386,-77.63059,14623,175000,3,1,138,1262,0.45,acres,SINGLE_FAMILY,Listing by: Howard Hanna
30959253,E Henrietta Rd,Rochester,NY,43.08032,-77.60607,14623,130000,3,1,88,1468,0.36,acres,SINGLE_FAMILY,Listing by: RE/MAX Plus
70906878,Hepburn Ln,Pittsford,NY,43.052895,-77.57008,14534,539900,6,3,183,2943,0.39,acres,SINGLE_FAMILY,Listing by: Tru Agent Real Estate
30896150,Elmerston Rd,Rochester,NY,43.115723,-77.62544,14620,189900,3,1,133,1426,7562.016,sqft,SINGLE_FAMILY,"Listing by: eXp Realty, LLC"
30964363,Lehigh Station Rd,Henrietta,NY,43.058952,-77.600914,14467,179000,4,2,111,1603,1.1478,acres,SINGLE_FAMILY,Listing by: Howard Hanna
30960198,Patrician Cir,Rochester,NY,43.073475,-77.61324,14623,179900,4,2,135,1332,10798.524,sqft,SINGLE_FAMILY,Listing by: Keller Williams Realty Greater Rochester
30896183,Westmoreland Dr,Rochester,NY,43.11479,-77.62738,14620,199900,3,2,161,1237,0.3955,acres,SINGLE_FAMILY,Listing by: Keller Williams Realty Greater Rochester
30962769,Connor Dr,Henrietta,NY,43.055035,-77.63064,14467,139900,3,1,102,1368,10367.28,sqft,SINGLE_FAMILY,Listing by: Howard Hanna
30896165,Edgemont Rd,Rochester,NY,43.115383,-77.626305,14620,200000,3,1,129,1550,5039.892,sqft,SINGLE_FAMILY,Listing by: RE/MAX Plus
30897388,Redfern Dr,Rochester,NY,43.116978,-77.619,14620,119900,2,1,127,944,5248.98,sqft,SINGLE_FAMILY,"Listing by: Lighthouse Management, LLC"
30964044,Kathy Dr,Pittsford,NY,43.063217,-77.58766,14534,189800,3,2,93,2020,0.2927,acres,SINGLE_FAMILY,Listing by: Howard Hanna
30900260,Ashley Dr,Rochester,NY,43.12084,-77.5832,14620,259900,5,3,120,2160,0.27,acres,SINGLE_FAMILY,Listing by: Keller Williams Realty Greater Rochester
30906669,French Rd,Rochester,NY,43.0988,-77.57554,14618,159900,3,3,124,1280,3920.4,sqft,TOWNHOUSE,Listing by: Keller Williams Realty Greater Rochester
30959847,Belltower Ln,Pittsford,NY,43.08005,-77.57969,14534,289900,2,4,108,2662,4787.244,sqft,TOWNHOUSE,Listing by: Keller Williams Realty Greater Rochester
30896144,Elmerston Rd,Rochester,NY,43.115685,-77.626495,14620,189900,3,1,144,1312,5039.892,sqft,SINGLE_FAMILY,Listing by: Keller Williams Realty Greater Rochester
30904911,Southland Dr,Rochester,NY,43.110443,-77.62895,14623,258000,4,2,127,2023,0.35,acres,SINGLE_FAMILY,Listing by: Howard Hanna
30959290,Birchbrook Dr,Rochester,NY,43.077015,-77.60309,14623,149900,3,2,149,1000,0.4279,acres,SINGLE_FAMILY,Listing by: Tru Agent Real Estate
30963903,Mystic Ln,Rochester,NY,43.062145,-77.60113,14623,179900,3,3,114,1575,0.3444,acres,SINGLE_FAMILY,Listing by: Howard Hanna
54512845,Eastbrooke Ln,Rochester,NY,43.101192,-77.57755,14618,155000,2,2,160,968,3049.2,sqft,TOWNHOUSE,"Listing by: Grazina Harper, Real Estate Broker"
30897307,Fort Hill Ter,Rochester,NY,43.121326,-77.616936,14620,259995,3,1,216,1200,3920.4,sqft,SINGLE_FAMILY,Listing by: Continental Real Estate Group
54512881,Eastbrooke Ln,Rochester,NY,43.100685,-77.577065,14618,124000,2,2,128,968,464,sqft,TOWNHOUSE,Listing by: Keller Williams Realty Greater Rochester
30958842,Clay Rd,Rochester,NY,43.089573,-77.61652,14623,225000,3,2,129,1739,0.69,acres,SINGLE_FAMILY,"Listing by: Mitchell Pierson, Jr., Inc."
30963012,Calkins Rd,Rochester,NY,43.06929,-77.62203,14623,199900,3,3,95,2104,1.17,acres,SINGLE_FAMILY,Listing by: Empire Realty Group
30906225,Hibiscus Dr,Rochester,NY,43.103603,-77.56157,14618,240000,3,2,156,1533,0.46,acres,SINGLE_FAMILY,Listing by: RE/MAX Realty Group
84712212,Shelbourne Rd,Rochester,NY,43.117104,-77.62546,14620,194900,3,1,152,1275,6250.86,sqft,SINGLE_FAMILY,Listing by: RE/MAX Realty Group
54512890,Eastbrooke Ln,Rochester,NY,43.100296,-77.57728,14618,134900,2,1,141,953,3049.2,sqft,TOWNHOUSE,Listing by: Romeo Realty Group Inc.
54512757,Eastbrooke Ln,Rochester,NY,43.10118,-77.575516,14618,155000,2,2,140,1106,3484.8,sqft,TOWNHOUSE,Listing by: Berkshire Hathaway HS Discover
30959850,Belltower Ln,Pittsford,NY,43.07969,-77.57943,14534,219900,2,2,147,1487,6351.048,sqft,TOWNHOUSE,Listing by: RE/MAX Realty Group
30959147,Wildbriar Rd,Rochester,NY,43.077007,-77.61555,14623,189000,5,2,109,1728,0.3444,acres,SINGLE_FAMILY,Listing by: Keller Williams Realty Greater Rochester
30964063,Colleen Way,Pittsford,NY,43.061043,-77.58943,14534,169900,3,2,120,1405,0.53,acres,SINGLE_FAMILY,Listing by: Coldwell Banker Custom Realty
30962842,Nevins Rd,Henrietta,NY,43.056534,-77.630226,14467,149900,4,2,109,1368,10454.4,sqft,SINGLE_FAMILY,Listing by: Howard Hanna
30904901,Southland Dr,Rochester,NY,43.11054,-77.62615,14623,149900,3,1,126,1188,0.35,acres,SINGLE_FAMILY,Listing by: Howard Hanna
30959130,Wildbriar Rd,Rochester,NY,43.07604,-77.62115,14623,175900,3,1,159,1106,0.3512,acres,SINGLE_FAMILY,Listing by: Platinum Prop & Asset Mgmt
30959670,Lysander Dr,Rochester,NY,43.078285,-77.586044,14623,179900,4,2,134,1335,0.3526,acres,SINGLE_FAMILY,"Listing by: Housel Realty, Inc."
54512860,Eastbrooke Ln,Rochester,NY,43.100098,-77.5779,14618,189900,2,3,141,1345,3049.2,sqft,TOWNHOUSE,Listing by: Howard Hanna
30963706,Lehigh Station Rd,Henrietta,NY,43.059723,-77.61514,14467,159777,3,1,132,1203,0.44,acres,SINGLE_FAMILY,Listing by: Revolution Real Estate
30964314,E Henrietta Rd,Henrietta,NY,43.05773,-77.61271,14467,199900,2,1,186,1072,0.4278,acres,SINGLE_FAMILY,Listing by: Tim Borshoff Realty Inc
30959176,Crimson Bramble Rd,Rochester,NY,43.076496,-77.61988,14623,250000,5,4,132,1888,0.42,acres,SINGLE_FAMILY,Listing by: Keller Williams Realty Greater Rochester
299458506,Willowford Dr,Henrietta,NY,43.05129,-77.60958,14467,386000,2,2,221,1740,3400,sqft,SINGLE_FAMILY,Listing by: Marrano Marc/Equity Corp
299458615,Willowford Dr,Henrietta,NY,43.05284,-77.61477,14467,399900,2,2,207,1923,,,SINGLE_FAMILY,Listing by: Marrano Marc/Equity Corp
237608644,Coventry Rdg,Pittsford,NY,43.052006,-77.56217,14534,549900,3,2,249,2204,0.35,acres,SINGLE_FAMILY,Listing by: WCI Realty
30896049,Lattimore Rd,Rochester,NY,43.118805,-77.62431,14620,210000,3,2,131,1600,5749.92,sqft,SINGLE_FAMILY,Listing by: Keller Williams Realty Greater Rochester
299459308,Willowford Dr,Henrietta,NY,43.051537,-77.61355,14467,348900,2,2,195,1784,3400,sqft,SINGLE_FAMILY,Listing by: Marrano Marc/Equity Corp
30959400,Aronica Dr,Rochester,NY,43.081154,-77.601944,14623,93000,3,2,93,1000,0.41,acres,SINGLE_FAMILY,Listing by: Hunt Real Estate ERA/Columbus
237608656,Coventry Rdg,Pittsford,NY,43.052563,-77.56145,14534,599900,3,2,287,2086,0.42,acres,SINGLE_FAMILY,Listing by: Spall Realty Corp
299458653,Willowford Dr,Henrietta,NY,43.051888,-77.61023,14467,373500,2,2,212,1760,3400,sqft,SINGLE_FAMILY,Listing by: Marrano Marc/Equity Corp
299459184,Willowford Dr,Henrietta,NY,43.051315,-77.60848,14467,383900,2,2,220,1742,3400,sqft,SINGLE_FAMILY,Listing by: Marrano Marc/Equity Corp
2068980374,E Henrietta Rd,Rochester,NY,43.074448,-77.60548,14623,1450000,,0,4,305530,7.014,acres,LOT,Listing by: Jim Pappas Commercial RE
2066911859,Emerson St #2,Rochester,NY,,,14613,66270,2,1,44,1484,3920.4,sqft,MULTI_FAMILY,Listing by: RE/MAX Plus
30858406,Petrossi Dr,Rochester,NY,43.18013,-77.586105,14621,89900,4,2,47,1873,4356,sqft,SINGLE_FAMILY,Listing by: Tru Agent Real Estate
30857873,1006 Avenue D Ave,Rochester,NY,43.18113,-77.59581,14621,82000,,0,42,1946,3920.4,sqft,MULTI_FAMILY,Listing by: RE/MAX Plus
30861140,Emerson St,Rochester,NY,43.17358,-77.65032,14613,99900,5,2,42,2345,5397.084,sqft,MULTI_FAMILY,Listing by: Howard Hanna
30899845,Westerloe Ave,Rochester,NY,43.126057,-77.58843,14620,279900,6,3,109,2561,0.59,acres,SINGLE_FAMILY,Listing by: RE/MAX Plus
30889681,Field St,Rochester,NY,43.13756,-77.58976,14620,179900,4,2,87,2064,6098.4,sqft,SINGLE_FAMILY,Listing by: Howard Hanna
237367959,Collingwood Dr,Rochester,NY,43.19675,-77.61357,14621,179900,3,1,109,1644,7840.8,sqft,SINGLE_FAMILY,Listing by: Howard Hanna
2064106715,Adams St,Rochester,NY,43.148655,-77.621826,14608,29900,3,1,27,1099,6808.428,sqft,SINGLE_FAMILY,Listing by: Agency 1 LLC
84710468,Ontario St,Rochester,NY,43.163544,-77.59481,14605,169900,,0,52,3254,9147.6,sqft,MULTI_FAMILY,Listing by: Keller Williams Realty Greater Rochester
119244234,Ames St,Rochester,NY,43.157654,-77.64358,14611,75000,5,3,31,2362,6098.4,sqft,MULTI_FAMILY,Listing by: RE/MAX Realty Group
30896527,Rockingham St,Rochester,NY,43.134922,-77.59516,14620,199900,3,1,122,1629,4678.344,sqft,SINGLE_FAMILY,Listing by: Howard Hanna
30886811,Gregory St,Rochester,NY,43.14209,-77.6088,14620,49900,4,2,28,1736,3049.2,sqft,SINGLE_FAMILY,Listing by: Howard Hanna
30887641,Plymouth Ave S,Rochester,NY,43.13946,-77.621956,14608,120000,5,2,53,2228,7435.692,sqft,SINGLE_FAMILY,Listing by: True North Realtors NY
30860207,Rainier St,Rochester,NY,43.178284,-77.63561,14613,71000,3,2,36,1960,6050.484,sqft,MULTI_FAMILY,Listing by: Hunt Real Estate ERA/Columbus
30895158,Spruce Ave,Rochester,NY,43.127945,-77.64349,14611,79900,4,2,60,1317,5601.816,sqft,SINGLE_FAMILY,Listing by: RE/MAX Realty Group
2099622092,Glenwood Ave,Rochester,NY,43.17665,-77.63707,14613,149900,3,3,63,2374,6050.484,sqft,MULTI_FAMILY,Listing by: Keller Williams Realty Greater Rochester
2078335976,North St,Rochester,NY,43.171574,-77.597,14605,169000,8,2,67,2496,6969.6,sqft,MULTI_FAMILY,Listing by: Keller Williams Realty Greater Rochester
30854579,Norton St,Rochester,NY,43.18669,-77.59683,14621,159000,3,2,92,1710,3598.056,sqft,MULTI_FAMILY,Listing by: Keller Williams Realty Greater Rochester
30883638,Roslyn St,Rochester,NY,43.13783,-77.64241,14619,199900,4,3,62,3214,7278.876,sqft,SINGLE_FAMILY,Listing by: Smart Real Estate
30883589,Flanders St,Rochester,NY,43.136253,-77.64924,14619,59900,3,1,41,1444,7405.2,sqft,SINGLE_FAMILY,Listing by: Ren Home Advisors LLC
2065786009,Augustine St,Rochester,NY,43.186382,-77.63735,14613,140000,4,2,69,2004,5536.476,sqft,MULTI_FAMILY,Listing by: One Seven Realty Inc
30851801,Birr St,Rochester,NY,43.185024,-77.63784,14613,75000,7,3,29,2536,5475.492,sqft,MULTI_FAMILY,Listing by: Howard Hanna
30856424,Barberry Ter,Rochester,NY,43.18334,-77.589615,14621,85900,3,1,71,1196,3384.612,sqft,SINGLE_FAMILY,Listing by: Keller Williams Realty Greater Rochester
30863278,Sherman St,Rochester,NY,43.166508,-77.637146,14606,89900,3,2,48,1860,7405.2,sqft,SINGLE_FAMILY,Listing by: Keller Williams Realty Greater Rochester
30850437,Gorsline St,Rochester,NY,43.192097,-77.62554,14613,139900,3,3,84,1646,5719.428,sqft,SINGLE_FAMILY,Listing by: Keller Williams Realty Greater Rochester
84695780,Mount Vernon Ave,Rochester,NY,43.139095,-77.60343,14620,199900,5,2,105,1887,5980.788,sqft,MULTI_FAMILY,Listing by: RE/MAX Realty Group
121367837,Brookscrest Way,Rochester,NY,43.12658,-77.63701,14611,199900,2,2,166,1200,4356,sqft,SINGLE_FAMILY,Listing by: Howard Hanna
30894626,Ellicott St,Rochester,NY,43.133278,-77.64018,14619,129900,4,2,74,1739,4791.6,sqft,SINGLE_FAMILY,Listing by: Hunt Real Estate ERA/Columbus
30895065,Virginia Ave,Rochester,NY,43.12888,-77.64616,14619,114900,4,2,81,1410,4791.6,sqft,SINGLE_FAMILY,Listing by: Updegraff Group LLC
30861289,Michigan St,Rochester,NY,43.172104,-77.64736,14606,99000,3,1,105,940,3345.408,sqft,SINGLE_FAMILY,Listing by: RE/MAX Realty Group
30893808,Seward St,Rochester,NY,43.134453,-77.63229,14611,110000,3,2,54,2024,0.2671,acres,SINGLE_FAMILY,"Listing by: NORCHAR, LLC"
2064148001,Alberta St #21,Rochester,NY,43.14372,-77.65034,14619,129900,4,2,77,1676,5227.2,sqft,MULTI_FAMILY,Listing by: Empire Realty Group
30882182,Inglewood Dr,Rochester,NY,43.14009,-77.65402,14619,164900,5,2,74,2227,6281.352,sqft,SINGLE_FAMILY,Listing by: Keller Williams Realty Greater Rochester
30896492,Highland Pkwy,Rochester,NY,43.133778,-77.597115,14620,199900,3,2,137,1458,5993.856,sqft,SINGLE_FAMILY,Listing by: RE/MAX Realty Group
30849434,Pullman Ave,Rochester,NY,43.19595,-77.63744,14615,115000,5,3,70,1630,5392.728,sqft,SINGLE_FAMILY,Listing by: RE/MAX Plus
30863943,Plymouth Ave N,Rochester,NY,43.165264,-77.626976,14608,36000,,0,18,1906,1999.404,sqft,MULTI_FAMILY,Listing by: Hunt Real Estate ERA/Columbus
30895409,Gillette St,Rochester,NY,43.127342,-77.648285,14619,50000,3,2,35,1412,5880.6,sqft,SINGLE_FAMILY,Listing by: Hunt Real Estate ERA/Columbus
30850926,Magee Ave,Rochester,NY,43.19002,-77.63087,14613,159900,,0,71,2230,5227.2,sqft,MULTI_FAMILY,Listing by: Slusser Realty Group
2064329626,Edinburgh St,Rochester,NY,43.146843,-77.61805,14608,279900,4,3,96,2904,7866.936,sqft,MULTI_FAMILY,Listing by: Keller Williams Realty Greater Rochester
30896852,Elmwood Ave,Rochester,NY,43.12499,-77.616005,14620,240900,5,2,159,1513,4809.024,sqft,SINGLE_FAMILY,Listing by: Eastman Property Management
30868450,Kappel Pl,Rochester,NY,43.172653,-77.61403,14605,49900,6,2,29,1666,5227.2,sqft,MULTI_FAMILY,Listing by: Coldwell Banker Custom Realty
2064167786,Holbrooke St,Rochester,NY,43.180653,-77.58872,14621,116900,4,2,85,1362,3920.4,sqft,SINGLE_FAMILY,Listing by: Slusser Realty Group
30855347,Northview Ter,Rochester,NY,43.18313,-77.62198,14621,102900,4,2,66,1550,3049.2,sqft,SINGLE_FAMILY,Listing by: Howard Hanna
2064171321,Arnett Blvd,Rochester,NY,43.142387,-77.65553,14619,179000,5,2,70,2546,5954.652,sqft,MULTI_FAMILY,Listing by: RE/MAX Plus
30850122,Ridgeway Ave,Rochester,NY,43.19354,-77.63982,14615,79900,3,2,60,1310,5366.592,sqft,SINGLE_FAMILY,Listing by: Howard Hanna
103735996,Portland Ave,Rochester,NY,43.188553,-77.58377,14621,299900,2,2,173,1728,6298.776,sqft,SINGLE_FAMILY,"Listing by: ROC Real Capital, LLC"
30855667,Van Stallen St,Rochester,NY,43.184727,-77.607254,14621,79900,4,1,54,1464,3532.716,sqft,SINGLE_FAMILY,Listing by: Hunt Real Estate ERA/Columbus
30895094,Terrace Park,Rochester,NY,43.12989,-77.6431,14619,139900,3,2,101,1375,5662.8,sqft,SINGLE_FAMILY,Listing by: Howard Hanna
30860802,Ravine Ave,Rochester,NY,43.174927,-77.63647,14613,100900,5,2,39,2582,8258.976,sqft,MULTI_FAMILY,Listing by: Howard Hanna
30850237,Adrian St,Rochester,NY,43.191326,-77.63656,14613,129900,3,2,94,1370,3402.036,sqft,SINGLE_FAMILY,Listing by: WNY Metro Roberts Realty
30883754,Elmdorf Ave,Rochester,NY,43.136917,-77.64337,14619,164900,3,3,109,1500,5558.256,sqft,SINGLE_FAMILY,Listing by: Mark F. Piccarreto
30867846,Alphonse St,Rochester,NY,43.176197,-77.59188,14621,56900,3,1,39,1435,6534,sqft,SINGLE_FAMILY,Listing by: Howard Hanna
30856130,Sobieski St,Rochester,NY,43.18424,-77.59662,14621,59900,4,1,40,1484,6899.904,sqft,SINGLE_FAMILY,Listing by: Anthony Realty Group
30851802,Birr St,Rochester,NY,43.185024,-77.63768,14613,120000,4,2,53,2250,5475.492,sqft,MULTI_FAMILY,Listing by: Tru Agent Real Estate
30882934,Schwarz St,Rochester,NY,43.13936,-77.63025,14611,90000,6,2,40,2216,3920.4,sqft,SINGLE_FAMILY,Listing by: RE/MAX Plus
30861916,Sunset St,Rochester,NY,43.16895,-77.65484,14606,129900,4,1,95,1364,3920.4,sqft,SINGLE_FAMILY,Listing by: Voyage Realty Group
30861801,Sunset St,Rochester,NY,43.17086,-77.65493,14606,119900,2,2,135,882,5227.2,sqft,SINGLE_FAMILY,Listing by: Keller Williams Realty Greater Rochester
30896808,Laney Rd,Rochester,NY,43.12873,-77.60397,14620,239900,3,2,134,1788,0.25,acres,SINGLE_FAMILY,Listing by: RE/MAX Plus
30858184,Herald St,Rochester,NY,43.179665,-77.593864,14621,89900,3,1,76,1182,3184.236,sqft,SINGLE_FAMILY,Listing by: Howard Hanna
30854044,Emanon St,Rochester,NY,43.18717,-77.62043,14621,64900,3,2,54,1182,3998.808,sqft,SINGLE_FAMILY,Listing by: Revolution Real Estate
30893201,Hillendale St,Rochester,NY,43.13483,-77.65167,14619,79900,3,2,50,1570,3920.4,sqft,SINGLE_FAMILY,Listing by: Ren Home Advisors LLC
30885156,Frederick Douglass St,Rochester,NY,43.147263,-77.61514,14608,205000,2,2,180,1134,2578.752,sqft,TOWNHOUSE,Listing by: The Greene Realty Group
30867769,Clifford Ave,Rochester,NY,43.17564,-77.595894,14621,75000,4,2,51,1456,6098.4,sqft,MULTI_FAMILY,Listing by: Better Homes and Gardens Real Estate Prosperity
30861335,Curtis St,Rochester,NY,43.173336,-77.64427,14606,64900,3,1,62,1043,4356,sqft,SINGLE_FAMILY,Listing by: Keller Williams Realty Greater Rochester
30879056,Fillmore St,Rochester,NY,43.147762,-77.65019,14611,89995,3,2,52,1715,5118.3,sqft,SINGLE_FAMILY,Listing by: Keller Williams Realty Greater Rochester
30895880,Devon Rd,Rochester,NY,43.124825,-77.64465,14619,59900,2,1,56,1056,4791.6,sqft,SINGLE_FAMILY,Listing by: Ren Home Advisors LLC
30895213,Spruce Ave,Rochester,NY,43.128418,-77.64253,14611,159000,6,2,73,2160,7000.092,sqft,MULTI_FAMILY,Listing by: Updegraff Group LLC
30884600,Oxford St,Rochester,NY,43.15377,-77.58401,14607,449900,7,5,99,4502,6795.36,sqft,MULTI_FAMILY,Listing by: RE/MAX Realty Group
30863694,Burrows St,Rochester,NY,43.165318,-77.64824,14606,65000,4,2,39,1660,7000.092,sqft,SINGLE_FAMILY,Listing by: Keller Williams Realty Greater Rochester
30855528,Borchard St,Rochester,NY,43.183792,-77.61213,14621,79900,5,2,46,1725,9583.2,sqft,MULTI_FAMILY,Listing by: RE/MAX Realty Group
30882848,Hawley St,Rochester,NY,43.14059,-77.63174,14611,65000,4,1,43,1486,5166.216,sqft,SINGLE_FAMILY,"Listing by: Key Property Ventures, LLC"
30869568,North St,Rochester,NY,43.16912,-77.59822,14605,39900,5,2,18,2181,5423.22,sqft,SINGLE_FAMILY,Listing by: Keller Williams Realty Greater Rochester
30854361,Moulson St,Rochester,NY,43.187656,-77.60546,14621,59900,3,1,56,1056,4356,sqft,SINGLE_FAMILY,Listing by: RE/MAX Realty Group
237403389,Alexander St,Rochester,NY,43.15243,-77.59536,14607,415000,6,4,80,5153,6534,sqft,MULTI_FAMILY,Listing by: Tru Agent Real Estate
30853122,Baird St,Rochester,NY,43.191994,-77.59287,14621,54900,3,1,64,850,6098.4,sqft,SINGLE_FAMILY,Listing by: Howard Hanna
2069740644,31 Rainier St,Rochester,NY,43.178013,-77.635956,14613,50000,6,2,12,3880,6050.484,sqft,MULTI_FAMILY,Listing by: Keller Williams Realty Greater Rochester
30877678,Hague St,Rochester,NY,43.15773,-77.64712,14611,39900,3,1,25,1567,3750.516,sqft,SINGLE_FAMILY,Listing by: Keller Williams Realty Greater Rochester
2101729462,Champlain St,Rochester,NY,43.145035,-77.6246,14608,89900,6,2,35,2514,4678.344,sqft,MULTI_FAMILY,Listing by: J M Sherry Realty LLC
2064241671,5 S Goodman St,Rochester,NY,43.149776,-77.58939,14607,325000,2,1,422,770,10018.8,sqft,SINGLE_FAMILY,Listing by: Howard Hanna
30894192,Brooks Ave,Rochester,NY,43.131214,-77.65206,14619,120000,3,1,83,1434,5662.8,sqft,SINGLE_FAMILY,Listing by: Updegraff Group LLC
30855609,Wolfert Ter,Rochester,NY,43.184235,-77.61027,14621,39900,4,3,25,1593,4791.6,sqft,SINGLE_FAMILY,Listing by: Zaretsky Realtors
30870145,2nd St,Rochester,NY,43.167454,-77.58662,14605,100000,3,1,69,1448,4800.312,sqft,SINGLE_FAMILY,Listing by: Anointed Realty
30862748,Canton St,Rochester,NY,43.167675,-77.65211,14606,99900,3,1,94,1056,3846.348,sqft,SINGLE_FAMILY,Listing by: Coldwell Banker Custom Realty
30871018,Alexander St,Rochester,NY,43.15927,-77.59251,14607,150000,4,2,78,1917,6098.4,sqft,SINGLE_FAMILY,Listing by: RE/MAX Realty Group
30864381,Masseth St,Rochester,NY,43.16192,-77.64605,14606,55500,3,1,44,1239,4791.6,sqft,SINGLE_FAMILY,Listing by: RE/MAX Realty Group
30850725,Seneca Pkwy,Rochester,NY,43.188633,-77.64281,14613,329900,6,4,92,3562,0.27,acres,SINGLE_FAMILY,Listing by: RE/MAX Realty Group
30850522,Electric Ave,Rochester,NY,43.190617,-77.64604,14613,107000,3,2,67,1579,4791.6,sqft,SINGLE_FAMILY,Listing by: Berkshire Hathaway HS Discover
30854363,Moulson St,Rochester,NY,43.18757,-77.60481,14621,99,2,1,0,940,4652.208,sqft,SINGLE_FAMILY,"Rowe Realty & Appraisal, Inc."
30865868,Avenue B,Rochester,NY,43.178936,-77.61729,14621,59900,4,2,33,1782,4800.312,sqft,SINGLE_FAMILY,Listing by: One Seven Realty Inc
30861223,Emerson St,Rochester,NY,43.173634,-77.64726,14613,89900,3,1,98,916,3354.12,sqft,SINGLE_FAMILY,Listing by: RE/MAX Realty Group
30862599,Sunset St,Rochester,NY,43.166534,-77.6554,14606,119900,3,1,106,1130,4159.98,sqft,SINGLE_FAMILY,Listing by: Revolution Real Estate
2067246909,Augustine St,Rochester,NY,43.1859,-77.64732,14613,124900,4,1,108,1150,5401.44,sqft,SINGLE_FAMILY,Listing by: Keller Williams Realty Greater Rochester
2099935486,Avenue D,Rochester,NY,43.1804,-77.6204,14621,74900,4,3,28,2640,5005.044,sqft,MULTI_FAMILY,Listing by: Keller Williams Realty Greater Rochester
30869987,Wait St,Rochester,NY,43.16794,-77.59223,14605,99000,3,2,67,1475,5227.2,sqft,SINGLE_FAMILY,Listing by: RE/MAX Realty Group
30895288,Custer St,Rochester,NY,43.12871,-77.64049,14611,129900,4,1,93,1396,1999.404,sqft,SINGLE_FAMILY,Listing by: RE/MAX Plus
30851865,Lakeview Ter,Rochester,NY,43.18458,-77.63558,14613,129900,4,1,72,1784,4421.34,sqft,SINGLE_FAMILY,Listing by: Coldwell Banker Custom Realty
30881795,Frost Ave,Rochester,NY,43.1435,-77.624405,14608,80000,4,2,41,1920,9147.6,sqft,SINGLE_FAMILY,Listing by: Ellison Realty Services
30860251,Kay Ter,Rochester,NY,43.178864,-77.633934,14613,72500,3,2,59,1228,3824.568,sqft,SINGLE_FAMILY,Listing by: Howard Hanna
30867423,Carl St,Rochester,NY,43.176796,-77.6107,14621,79900,4,2,40,1975,3489.156,sqft,MULTI_FAMILY,Listing by: One Seven Realty Inc
237366499,Augustine St,Rochester,NY,43.186462,-77.63723,14613,55000,3,1,31,1768,5536.476,sqft,SINGLE_FAMILY,Listing by: Weichert Realtors - Lilac Properties
30855672,Van Stallen St,Rochester,NY,43.18484,-77.606476,14621,34900,5,2,19,1812,4791.6,sqft,SINGLE_FAMILY,Listing by: RE/MAX Realty Group
30895459,Kingsboro Rd,Rochester,NY,43.125538,-77.648994,14619,149900,3,2,75,1986,4800.312,sqft,SINGLE_FAMILY,Listing by: Keller Williams Realty Greater Rochester
30888282,Bloomfield Pl,Rochester,NY,43.14086,-77.59441,14620,99900,3,1,82,1207,2787.84,sqft,SINGLE_FAMILY,Listing by: WCI Realty
30850764,Magee Ave,Rochester,NY,43.190197,-77.634155,14613,140000,3,2,80,1750,8076.024,sqft,SINGLE_FAMILY,Listing by: Four Seasons Sotheby's Int'l
30865952,Avenue A,Rochester,NY,43.17765,-77.615,14621,59900,4,1,41,1437,4647.852,sqft,SINGLE_FAMILY,Listing by: Coldwell Banker Custom Realty
30883392,Lehigh Ave,Rochester,NY,43.136787,-77.6527,14619,99900,3,1,67,1488,5606.172,sqft,SINGLE_FAMILY,Listing by: Elevate Realty Group
30893671,Cottage St,Rochester,NY,43.13565,-77.63363,14611,49900,2,1,48,1020,4791.6,sqft,SINGLE_FAMILY,Listing by: Howard Hanna
30862893,Rogers Ave,Rochester,NY,43.167175,-77.64622,14606,69500,2,1,73,950,5401.44,sqft,SINGLE_FAMILY,Listing by: Keller Williams Realty Greater Rochester
30855839,54 Pulaski St,Rochester,NY,43.184883,-77.60145,14621,77250,6,2,34,2231,3402.036,sqft,MULTI_FAMILY,Listing by: Keller Williams Realty Greater Rochester
30860950,Fulton Ave,Rochester,NY,43.17446,-77.63161,14613,109900,,0,31,3528,5227.2,sqft,MULTI_FAMILY,Listing by: RE/MAX Realty Group
30880063,Sherwood Ave,Rochester,NY,43.14435,-77.64666,14619,79900,3,1,46,1710,4356,sqft,SINGLE_FAMILY,Listing by: Keller Williams Realty Greater Rochester
30861049,(undisclosed Address),Rochester,NY,,,14606,103900,3,2,74,1396,5227.2,sqft,SINGLE_FAMILY,Listing by: Howard Hanna
30889384,Bly St,Rochester,NY,43.136753,-77.59518,14620,116,3,2,0,973,3301.848,sqft,SINGLE_FAMILY,"Rowe Realty & Appraisal, Inc."
30858035,Roycroft Dr,Rochester,NY,43.18142,-77.59414,14621,39900,3,1,34,1169,2613.6,sqft,SINGLE_FAMILY,Listing by: Keller Williams Realty Greater Rochester
119241235,Capron St UNIT 305,Rochester,NY,43.1518,-77.606766,14607,224900,1,2,236,952,435.6,sqft,CONDO,Listing by: Keller Williams Realty Greater Rochester
30863845,Sherman St,Rochester,NY,43.165276,-77.63552,14606,69900,4,2,38,1820,4356,sqft,MULTI_FAMILY,Listing by: RE/MAX Titanium LLC
30887192,Richard St,Rochester,NY,43.142117,-77.59277,14607,98600,1,1,129,763,3049.2,sqft,SINGLE_FAMILY,Listing by: Keller Williams Realty Greater Rochester
30863163,Sherman St,Rochester,NY,43.167526,-77.63796,14606,46900,2,2,65,716,3301.848,sqft,SINGLE_FAMILY,"Listing by: High Falls Real Estate Co, Inc"
2064426887,Jefferson Ave,Rochester,NY,43.147957,-77.62935,14611,125000,6,3,44,2782,5501.628,sqft,MULTI_FAMILY,Listing by: One Seven Realty Inc
30867314,Clifford Ave,Rochester,NY,43.175095,-77.614655,14621,74900,4,2,42,1770,3602.412,sqft,MULTI_FAMILY,Listing by: One Seven Realty Inc
30860046,Glenwood Ave,Rochester,NY,43.17714,-77.64085,14613,140000,6,3,69,2027,3767.94,sqft,MULTI_FAMILY,Listing by: One Seven Realty Inc
2064427644,York St,Rochester,NY,43.153015,-77.637085,14611,59900,3,1,48,1240,5227.2,sqft,SINGLE_FAMILY,Listing by: One Seven Realty Inc
2064435109,Dewey Ave,Rochester,NY,43.17744,-77.639206,14613,69900,4,4,21,3312,6534,sqft,MULTI_FAMILY,Listing by: Updegraff Group LLC
121368014,Brookscrest Way,Rochester,NY,43.126816,-77.63714,14611,239900,3,2,156,1536,5227.2,sqft,SINGLE_FAMILY,Listing by: RE/MAX Realty Group
30895394,Genesee Park Blvd,Rochester,NY,43.126625,-77.646545,14619,124900,3,2,93,1337,4839.516,sqft,SINGLE_FAMILY,Listing by: RE/MAX Plus
30895251,Terrace Park,Rochester,NY,43.129864,-77.63817,14619,79900,3,1,67,1176,5445,sqft,SINGLE_FAMILY,Listing by: RE/MAX Realty Group
30870107,4th St,Rochester,NY,43.167034,-77.58494,14605,89900,5,2,54,1662,4800.312,sqft,SINGLE_FAMILY,Listing by: Ellison Realty Services
30860670,143 Glendale Park,Rochester,NY,43.175724,-77.641426,14613,75000,6,2,28,2610,7000.092,sqft,MULTI_FAMILY,Listing by: Coldwell Banker Custom Realty
30857529,Remington St,Rochester,NY,43.179913,-77.61028,14621,39900,2,1,53,752,5767.344,sqft,SINGLE_FAMILY,Listing by: North Star Real Estate
30884374,Upton Park,Rochester,NY,43.1552,-77.58551,14607,219500,4,2,101,2164,4356,sqft,SINGLE_FAMILY,Listing by: RE/MAX Plus
30877942,Wilder St,Rochester,NY,43.156124,-77.63473,14611,65999,4,2,38,1720,4255.812,sqft,SINGLE_FAMILY,Listing by: Kapic Realty
30884188,Magnolia St,Rochester,NY,43.138115,-77.62832,14608,105900,3,2,95,1104,4098.996,sqft,SINGLE_FAMILY,Listing by: Marketview Heights Association
30855748,Joseph Ave,Rochester,NY,43.18212,-77.60838,14621,69900,4,2,42,1632,4007.52,sqft,SINGLE_FAMILY,Listing by: Howard Hanna
30865987,Bloomingdale St,Rochester,NY,43.179634,-77.61175,14621,54900,4,2,50,1080,3667.752,sqft,SINGLE_FAMILY,Listing by: Dave Baxter Realty
2073267204,Appleton St,Rochester,NY,43.149643,-77.643776,14611,570000,8,4,100,5649,10497.96,sqft,MULTI_FAMILY,Listing by: Ellison Realty Services
30858367,Rosemary Dr,Rochester,NY,43.18036,-77.585526,14621,105000,3,1,72,1450,3118.896,sqft,SINGLE_FAMILY,Listing by: Marketview Heights Association
30880135,Salina St,Rochester,NY,43.144314,-77.65185,14619,49900,3,2,38,1302,3484.8,sqft,SINGLE_FAMILY,Listing by: Howard Hanna
30865139,Lorenzo St,Rochester,NY,43.158173,-77.64503,14611,59900,3,1,46,1280,4791.6,sqft,SINGLE_FAMILY,Listing by: Howard Hanna
30885793,Glasgow St,Rochester,NY,43.145985,-77.617676,14608,239900,3,2,119,2006,3876.84,sqft,MULTI_FAMILY,Listing by: Elevate Realty Group
30849983,Flower City Park,Rochester,NY,43.192345,-77.64028,14615,90000,3,1,63,1414,9517.86,sqft,SINGLE_FAMILY,Listing by: Howard Hanna
30857006,Malling Dr,Rochester,NY,43.18204,-77.62273,14621,99999,3,1,80,1240,3977.028,sqft,SINGLE_FAMILY,Listing by: RESULTS REALTORS
119242311,Capron St UNIT 303,Rochester,NY,43.1518,-77.606766,14607,334900,2,2,224,1492,435.6,sqft,CONDO,Listing by: Hunt Real Estate ERA/Columbus
2083425341,Harris St,Rochester,NY,43.179806,-77.621506,14621,99900,7,4,20,4842,4800.312,sqft,MULTI_FAMILY,Listing by: Keller Williams Realty Greater Rochester
30866246,Wilkins St,Rochester,NY,43.178654,-77.60458,14621,79900,5,2,44,1806,4081.572,sqft,MULTI_FAMILY,Listing by: RE/MAX Plus
30852253,Holmes St,Rochester,NY,43.180443,-77.64276,14613,99900,3,1,74,1336,5850.108,sqft,SINGLE_FAMILY,Listing by: Keller Williams Realty Greater Rochester
30888383,Benton St,Rochester,NY,43.1392,-77.59163,14620,115000,1,1,100,1140,3049.2,sqft,SINGLE_FAMILY,Listing by: Empire Realty Group
30887887,Rhona Pl,Rochester,NY,43.14016,-77.60669,14620,175000,3,1,116,1502,2613.6,sqft,SINGLE_FAMILY,Listing by: Howard Hanna
2065784997,Sanford St,Rochester,NY,43.14074,-77.61261,14620,375000,8,4,74,5040,3920.4,sqft,MULTI_FAMILY,Listing by: Howard Hanna
30863838,Sherman St,Rochester,NY,43.165913,-77.63673,14606,35000,3,1,32,1074,2779.128,sqft,SINGLE_FAMILY,Listing by: Better Homes and Gardens Real Estate Prosperity
30859886,Curlew St,Rochester,NY,43.17778,-77.6486,14613,80,3,1,0,1220,5706.36,sqft,SINGLE_FAMILY,Harris Wilcox Inc
2065789970,Hickory St #56,Rochester,NY,,,14620,229900,6,2,92,2482,4791.6,sqft,MULTI_FAMILY,Listing by: Howard Hanna
116407648,Capron St UNIT 202,Rochester,NY,43.1518,-77.606766,14607,349900,2,3,228,1528,435.6,sqft,CONDO,Listing by: RE/MAX Realty Group
2065469569,Lake View Park,Rochester,NY,,,14613,150000,5,2,68,2187,5998.212,sqft,SINGLE_FAMILY,Listing by: Ellison Realty Services
2067376026,Jefferson Ave,Rochester,NY,43.13883,-77.62862,14611,85000,3,1,70,1200,4739.328,sqft,SINGLE_FAMILY,Listing by: Listwithfreedom.com
30863718,Lyell Ave,Rochester,NY,43.16494,-77.644135,14606,87500,2,1,32,2687,7405.2,sqft,MULTI_FAMILY,Listing by: Keller Williams Realty Greater Rochester
2071515682,Pearl St,Rochester,NY,43.146267,-77.598976,14607,299900,8,4,54,5515,4552.02,sqft,MULTI_FAMILY,Listing by: RE/MAX Realty Group
2065794090,Saratoga Ave,Rochester,NY,43.16804,-77.63166,14608,145000,15,5,35,4032,5662.8,sqft,MULTI_FAMILY,"Listing by: eXp Realty, LLC"
30881829,Bartlett St,Rochester,NY,43.142574,-77.62584,14608,69900,4,2,33,2058,6534,sqft,MULTI_FAMILY,Listing by: Howard Hanna
30893073,Midvale Ter,Rochester,NY,43.13409,-77.65284,14619,115000,3,2,79,1453,4399.56,sqft,SINGLE_FAMILY,Listing by: Hunt Real Estate ERA/Columbus
30867694,Maria St,Rochester,NY,43.174404,-77.60618,14605,39900,5,2,30,1288,4351.644,sqft,SINGLE_FAMILY,Listing by: RE/MAX Realty Group
30851036,Augustine St,Rochester,NY,43.1859,-77.64783,14613,94500,3,1,67,1396,6751.8,sqft,SINGLE_FAMILY,Listing by: New 2 U Homes LLC
30896834,Gold St,Rochester,NY,43.126072,-77.61592,14620,195000,3,1,129,1503,4791.6,sqft,SINGLE_FAMILY,Listing by: Keller Williams Realty Greater Rochester
30862758,Canton St,Rochester,NY,43.168243,-77.65265,14606,109900,3,2,81,1344,3920.4,sqft,SINGLE_FAMILY,Listing by: Howard Hanna
30862385,Sherman St,Rochester,NY,43.16902,-77.638435,14606,85000,4,2,50,1688,5105.232,sqft,SINGLE_FAMILY,Listing by: Hunt Real Estate ERA/Columbus
2065448313,Leavenworth St,Rochester,NY,43.175903,-77.63135,14613,20000,1,1,29,668,2683.296,sqft,SINGLE_FAMILY,Listing by: Better Homes and Gardens Real Estate Prosperity
30868306,Durgin St,Rochester,NY,43.173515,-77.62233,14605,35000,3,1,15,2228,1947.132,sqft,SINGLE_FAMILY,Listing by: Marketview Heights Association
30899651,Winslow Ave,Rochester,NY,43.13003,-77.5865,14620,285000,4,3,117,2424,0.31,acres,SINGLE_FAMILY,Listing by: Keller Williams Realty Greater Rochester
30849656,Lapham St,Rochester,NY,43.194786,-77.6254,14615,149900,3,1,95,1575,5362.236,sqft,SINGLE_FAMILY,"Listing by: Magellan, Inc."
30853005,Resolute St,Rochester,NY,43.190872,-77.61029,14621,109900,3,1,88,1248,4356,sqft,SINGLE_FAMILY,Listing by: Keller Williams Realty Greater Rochester
2065454463,Millbank St,Rochester,NY,43.132427,-77.639915,14619,89900,4,2,54,1639,4917.924,sqft,SINGLE_FAMILY,Listing by: RE/MAX Realty Group
30893363,W High Ter,Rochester,NY,43.13595,-77.64286,14619,100000,3,2,62,1604,4251.456,sqft,SINGLE_FAMILY,Listing by: Keller Williams Realty Greater Rochester
30851207,Alameda St,Rochester,NY,43.187305,-77.63673,14613,139000,4,2,93,1494,5227.2,sqft,SINGLE_FAMILY,Listing by: Howard Hanna
30863936,Spencer St,Rochester,NY,43.16494,-77.62834,14608,54000,6,2,27,1960,2178,sqft,MULTI_FAMILY,Listing by: RE/MAX Realty Group
30852181,Selye Ter,Rochester,NY,43.181507,-77.64119,14613,100000,3,2,65,1538,4639.14,sqft,SINGLE_FAMILY,Listing by: Hunt Real Estate ERA/Columbus
30857933,Herald St,Rochester,NY,43.179554,-77.59646,14621,48000,3,1,45,1056,4356,sqft,SINGLE_FAMILY,Listing by: Keller Williams Realty Greater Rochester
2075807386,Verona St,Rochester,NY,,,14608,103700,6,3,37,2764,7405.2,sqft,MULTI_FAMILY,Listing by: Keller Williams Realty Greater Rochester
2138234586,Jay St,Rochester,NY,43.1596,-77.6397,14611,145000,8,4,28,5010,4547.664,sqft,MULTI_FAMILY,"Listing by: eXp Realty, LLC"
30862353,Aab St,Rochester,NY,43.170918,-77.64019,14606,113750,4,2,56,2012,6969.6,sqft,MULTI_FAMILY,Listing by: Keller Williams Realty Greater Rochester
2070439220,Dewey Ave #583,Rochester,NY,43.175438,-77.63965,14613,94900,6,2,44,2134,4164.336,sqft,MULTI_FAMILY,Listing by: Hunt Real Estate ERA/Columbus
2089314478,Avis St,Rochester,NY,43.195625,-77.6421,14615,120000,4,2,63,1904,5000.688,sqft,MULTI_FAMILY,Listing by: Keller Williams Realty Greater Rochester
30849275,275 Avis St,Rochester,NY,43.19528,-77.64176,14615,120000,4,2,51,2348,5000.688,sqft,MULTI_FAMILY,Listing by: Keller Williams Realty Greater Rochester
30857343,Remington St,Rochester,NY,43.182514,-77.61125,14621,69900,3,1,50,1391,3920.4,sqft,SINGLE_FAMILY,Listing by: Howard Hanna
2065487789,Ontario St,Rochester,NY,43.163246,-77.59382,14605,499995,8,4,82,6075,4456.188,sqft,MULTI_FAMILY,Listing by: Keller Williams Realty Greater Rochester
30870515,Ontario St,Rochester,NY,43.163193,-77.59364,14605,499995,6,2,205,2429,9147.6,sqft,MULTI_FAMILY,Listing by: Keller Williams Realty Greater Rochester
2065487802,Ontario St,Rochester,NY,43.1633,-77.593994,14605,499995,8,4,82,6075,8276.4,sqft,MULTI_FAMILY,Listing by: Keller Williams Realty Greater Rochester
2067244255,Costar St,Rochester,NY,43.169952,-77.63067,14608,59900,4,1,40,1496,1999.404,sqft,SINGLE_FAMILY,Listing by: Keller Williams Realty Greater Rochester
30870818,Delevan St,Rochester,NY,43.160927,-77.59898,14605,239900,6,3,80,2982,5227.2,sqft,MULTI_FAMILY,Listing by: Coldwell Banker Custom Realty
30884663,Waverly Pl,Rochester,NY,43.15029,-77.62006,14608,199900,4,2,115,1728,3798.432,sqft,MULTI_FAMILY,Listing by: RE/MAX Realty Group
2065500594,Wellington Ave,Rochester,NY,43.142765,-77.64048,14611,114900,5,2,44,2596,5222.844,sqft,MULTI_FAMILY,Listing by: RE/MAX Realty Group
30867628,Alphonse St,Rochester,NY,43.176476,-77.6033,14621,98900,4,2,46,2115,5479.848,sqft,MULTI_FAMILY,Listing by: Coldwell Banker Custom Realty
30881791,Frost Ave,Rochester,NY,43.14405,-77.62394,14608,99900,4,2,41,2400,5654.088,sqft,SINGLE_FAMILY,Listing by: Howard Hanna
30851609,Bryan St,Rochester,NY,43.184658,-77.64365,14613,99999,5,2,48,2050,4930.992,sqft,SINGLE_FAMILY,Listing by: Coldwell Banker Custom Realty
30850607,Electric Ave,Rochester,NY,43.19068,-77.64277,14613,119900,3,3,67,1775,4778.532,sqft,SINGLE_FAMILY,Listing by: RE/MAX Realty Group
237376429,Glenwood Ave,Rochester,NY,43.17664,-77.64086,14613,74900,5,2,46,1612,6290.064,sqft,MULTI_FAMILY,"Listing by: Key Property Ventures, LLC"
2100695898,Backus St,Rochester,NY,43.170773,-77.63169,14608,199900,9,8,29,6886,0.52,acres,MULTI_FAMILY,Listing by: Hunt Real Estate ERA/Columbus
2065510668,La Grange Ave,Rochester,NY,43.196964,-77.65359,14615,129900,3,2,84,1529,5227.2,sqft,SINGLE_FAMILY,Listing by: Ellison Realty Services
30881086,Wilton Ter,Rochester,NY,43.14287,-77.64952,14619,104900,3,1,89,1176,4072.86,sqft,SINGLE_FAMILY,Listing by: Agency 1 LLC
30868720,Vose St,Rochester,NY,43.173412,-77.60133,14605,98000,6,2,71,1365,4369.068,sqft,MULTI_FAMILY,Listing by: Keller Williams Realty Greater Rochester
30860646,Finch St,Rochester,NY,43.176533,-77.64034,14613,49900,4,3,20,2474,4356,sqft,MULTI_FAMILY,Listing by: Keller Williams Realty Greater Rochester
30855417,Saranac St,Rochester,NY,43.183483,-77.6202,14621,65000,5,2,32,1973,6473.016,sqft,SINGLE_FAMILY,Listing by: Ellison Realty Services
30885048,Adams St,Rochester,NY,43.14854,-77.62323,14608,62500,3,1,46,1330,4216.608,sqft,SINGLE_FAMILY,Listing by: New 2 U Homes LLC
2088672633,Rowley St,Rochester,NY,43.14755,-77.592606,14607,499900,5,4,95,5208,5998.212,sqft,MULTI_FAMILY,Listing by: Howard Hanna
30860729,Glendale Park,Rochester,NY,43.17576,-77.64005,14613,49900,3,2,36,1350,6290.064,sqft,SINGLE_FAMILY,Listing by: Ren Home Advisors LLC
30871039,Alexander St APT 19,Rochester,NY,43.15892,-77.59329,14607,175000,2,2,142,1226,1742.4,sqft,TOWNHOUSE,Listing by: Howard Hanna
30850003,Flower City Park,Rochester,NY,43.192352,-77.64424,14615,119900,4,2,80,1482,9966.528,sqft,SINGLE_FAMILY,Listing by: Berkshire Hathaway HS Discover
30880455,Superior Ter,Rochester,NY,43.145164,-77.63702,14611,89900,3,1,94,950,2069.1,sqft,SINGLE_FAMILY,Listing by: Howard Hanna
30879120,Hobart St,Rochester,NY,43.147877,-77.64901,14611,124900,4,2,76,1642,5118.3,sqft,SINGLE_FAMILY,Listing by: One Eighty Realty LLC
30850636,Magee Ave,Rochester,NY,43.190296,-77.641685,14613,114900,3,2,68,1688,4778.532,sqft,MULTI_FAMILY,Listing by: Eastman Property Management
30860132,Maryland St,Rochester,NY,43.17734,-77.637924,14613,89900,,0,35,2568,4613.004,sqft,MULTI_FAMILY,Listing by: Howard Hanna
30849516,Pullman Ave,Rochester,NY,43.1958,-77.63288,14615,129000,6,2,46,2752,4804.668,sqft,MULTI_FAMILY,Listing by: Eastman Property Management
2067453127,Canton St,Rochester,NY,43.167217,-77.65211,14606,124900,3,1,108,1152,3846.348,sqft,SINGLE_FAMILY,Listing by: Oxford Clay Realty
30849934,Electric Ave,Rochester,NY,43.191097,-77.6486,14613,72500,3,1,58,1234,4778.532,sqft,SINGLE_FAMILY,Listing by: Howard Hanna
30851507,Bidwell Ter,Rochester,NY,43.184284,-77.64629,14613,79900,3,1,65,1224,3497.868,sqft,SINGLE_FAMILY,Listing by: RE/MAX Realty Group
30887346,Wilcox St,Rochester,NY,43.14312,-77.58941,14607,119900,2,1,123,969,3920.4,sqft,SINGLE_FAMILY,Listing by: RE/MAX Plus
30886161,Meigs St,Rochester,NY,43.146187,-77.59568,14607,249900,5,3,89,2781,5601.816,sqft,MULTI_FAMILY,Listing by: Howard Hanna
30879892,Garfield St,Rochester,NY,43.145527,-77.65427,14611,75000,3,1,64,1169,5079.096,sqft,SINGLE_FAMILY,Listing by: Keller Williams Realty Greater Rochester
2071504653,Portland Ave,Rochester,NY,43.179638,-77.58863,14621,40000,6,2,19,2026,3667.752,sqft,MULTI_FAMILY,"Listing by: Key Property Ventures, LLC"
30884893,Girton Pl,Rochester,NY,43.15111,-77.586975,14607,299900,5,3,115,2602,4791.6,sqft,SINGLE_FAMILY,Listing by: Howard Hanna
30868600,Rauber St,Rochester,NY,43.17289,-77.60652,14605,50000,5,3,25,1941,3981.384,sqft,SINGLE_FAMILY,Listing by: Colleen M. Burke
30868660,Quamina Dr,Rochester,NY,43.172504,-77.6058,14605,55000,4,2,39,1407,3916.044,sqft,SINGLE_FAMILY,Listing by: Colleen M. Burke
2065567074,Kislingbury St,Rochester,NY,43.183285,-77.64305,14613,112900,3,2,87,1292,5161.86,sqft,SINGLE_FAMILY,Listing by: Keller Williams Realty Greater Rochester
30877587,Glide St,Rochester,NY,43.157955,-77.65428,14611,99900,4,2,47,2088,3319.272,sqft,MULTI_FAMILY,Listing by: RE/MAX Plus
30888596,Crosman Ter,Rochester,NY,43.139553,-77.5847,14620,380000,4,2,166,2277,7100.28,sqft,SINGLE_FAMILY,Listing by: Keller Williams Realty Greater Rochester
30893900,Plymouth Ave S,Rochester,NY,43.13331,-77.63188,14611,179900,3,2,125,1432,2613.6,sqft,SINGLE_FAMILY,Listing by: Elevate Realty Group
30869155,Sander St,Rochester,NY,43.17299,-77.58568,14605,93750,4,2,44,2108,3097.116,sqft,MULTI_FAMILY,Listing by: Keller Williams Realty Greater Rochester
30855015,Furlong St,Rochester,NY,43.18535,-77.58922,14621,87500,4,2,45,1908,3484.8,sqft,MULTI_FAMILY,Listing by: Keller Williams Realty Greater Rochester
30853315,Tyler St,Rochester,NY,43.189335,-77.61678,14621,19900,4,2,11,1683,5083.452,sqft,MULTI_FAMILY,Listing by: Hunt Real Estate ERA/Columbus
103734308,Alexander St,Rochester,NY,43.161316,-77.59161,14605,39900,,0,,,10018.8,sqft,MULTI_FAMILY,Listing by: RE/MAX Plus
2065581514,Shepard St,Rochester,NY,43.138336,-77.58407,14620,259900,4,2,92,2807,4791.6,sqft,MULTI_FAMILY,Listing by: Howard Hanna
30879169,Lozier St,Rochester,NY,43.147842,-77.64726,14611,79900,3,2,46,1727,4608.648,sqft,SINGLE_FAMILY,Listing by: RE/MAX Realty Group
30894932,Gillette St,Rochester,NY,43.130436,-77.648994,14619,110000,3,2,79,1377,5880.6,sqft,SINGLE_FAMILY,Listing by: Keller Williams Realty Greater Rochester
30849796,La Grange Ave,Rochester,NY,43.19178,-77.65292,14615,130000,3,1,112,1152,5000.688,sqft,SINGLE_FAMILY,Listing by: Keller Williams Realty Greater Rochester
30862131,Delmar St,Rochester,NY,43.169796,-77.64465,14606,79900,5,2,52,1536,5000.688,sqft,SINGLE_FAMILY,Listing by: RE/MAX Realty Group
30860185,Lexington Ave,Rochester,NY,43.179104,-77.63513,14613,129900,6,2,52,2472,9147.6,sqft,SINGLE_FAMILY,Listing by: Hunt Real Estate ERA/Columbus
30854918,Turpin St,Rochester,NY,43.186142,-77.58492,14621,84900,2,1,91,924,3920.4,sqft,SINGLE_FAMILY,Listing by: Revolution Real Estate
30894216,Ellicott St,Rochester,NY,43.13326,-77.6493,14619,99000,3,1,72,1374,3998.808,sqft,SINGLE_FAMILY,Listing by: Keller Williams Realty Greater Rochester
30856705,Mitchell St,Rochester,NY,43.183323,-77.58722,14621,80000,2,1,76,1040,3998.808,sqft,SINGLE_FAMILY,Listing by: RE/MAX Plus
30860784,Ravine Ave,Rochester,NY,43.174988,-77.64012,14613,84900,3,2,43,1951,4382.136,sqft,SINGLE_FAMILY,Listing by: RE/MAX Plus
30858188,Herald St,Rochester,NY,43.179653,-77.5944,14621,70000,3,1,56,1242,3288.78,sqft,SINGLE_FAMILY,Listing by: RE/MAX Plus
30852449,Lake Ave,Rochester,NY,43.182148,-77.63214,14613,149900,7,3,32,4620,10506.672,sqft,MULTI_FAMILY,Listing by: RE/MAX Plus
2087533644,Moulson St,Rochester,NY,43.185528,-77.60484,14621,99000,4,2,45,2164,4560.732,sqft,MULTI_FAMILY,Listing by: RE/MAX Plus
30888632,Laburnam Cres,Rochester,NY,43.138943,-77.58666,14620,350000,5,2,115,3032,6534,sqft,MULTI_FAMILY,Listing by: RE/MAX Plus
30886267,S Goodman St,Rochester,NY,43.144886,-77.59339,14607,218000,4,2,113,1924,4051.08,sqft,MULTI_FAMILY,Listing by: Ren Home Advisors LLC
30852875,Versailles Rd,Rochester,NY,43.195915,-77.61056,14621,188888,4,2,93,2011,5998.212,sqft,SINGLE_FAMILY,Listing by: Revolution Real Estate
2099756813,Trenaman St,Rochester,NY,43.184277,-77.615585,14621,70000,5,2,29,2392,3920.4,sqft,MULTI_FAMILY,Listing by: Keller Williams Realty Greater Rochester
30883437,Ravenwood Ave,Rochester,NY,43.138496,-77.651726,14619,124900,3,1,89,1394,4447.476,sqft,SINGLE_FAMILY,Listing by: Keller Williams Realty Greater Rochester
30851808,Pierpont St,Rochester,NY,43.18318,-77.63739,14613,124500,4,2,59,2080,4543.308,sqft,SINGLE_FAMILY,Listing by: Keller Williams Realty Greater Rochester
2065619545,Lake View Park,Rochester,NY,43.182327,-77.64262,14613,132500,4,1,69,1908,4800.312,sqft,SINGLE_FAMILY,Listing by: Keller Williams Realty Greater Rochester
54357032,Hoeltzer St,Rochester,NY,43.17338,-77.6103,14605,100000,3,1,85,1176,6969.6,sqft,SINGLE_FAMILY,Listing by: Neighborhood Assistant Corpora
30852458,Driving Park Ave,Rochester,NY,43.181152,-77.63428,14613,79900,4,2,41,1934,3898.62,sqft,SINGLE_FAMILY,Listing by: Keller Williams Realty Greater Rochester
30868571,Hoeltzer St,Rochester,NY,43.172993,-77.61177,14605,75000,4,1,58,1279,2970.792,sqft,SINGLE_FAMILY,Listing by: Keller Williams Realty Greater Rochester
30896895,Gold St,Rochester,NY,43.125744,-77.61448,14620,69900,3,2,55,1254,4800.312,sqft,SINGLE_FAMILY,Listing by: Hunt Real Estate ERA/Columbus
30862878,Otis St,Rochester,NY,43.168858,-77.64613,14606,52000,3,1,57,898,2038.608,sqft,SINGLE_FAMILY,Listing by: RE/MAX Realty Group
30865787,Avenue A,Rochester,NY,43.178074,-77.61768,14621,49900,3,1,41,1200,5227.2,sqft,SINGLE_FAMILY,Listing by: RE/MAX Realty Group
30861410,Emerson St,Rochester,NY,43.173645,-77.6406,14613,50000,6,2,25,1927,3576.276,sqft,SINGLE_FAMILY,Listing by: RE/MAX Realty Group
30885140,S Fitzhugh St,Rochester,NY,43.148106,-77.614,14608,194900,3,2,136,1430,2613.6,sqft,SINGLE_FAMILY,Listing by: Howard Hanna
237364541,Dewey Ave,Rochester,NY,43.194366,-77.63928,14615,149900,,0,73,2053,5227.2,sqft,MULTI_FAMILY,Listing by: RE/MAX Realty Group
30894473,Burlington Ave,Rochester,NY,43.132984,-77.64643,14619,165000,3,2,114,1442,5013.756,sqft,SINGLE_FAMILY,Listing by: Howard Hanna
30857936,Herald St,Rochester,NY,43.179543,-77.596954,14621,64900,3,1,49,1320,4356,sqft,SINGLE_FAMILY,Listing by: Ren Home Advisors LLC
30884641,Troup St,Rochester,NY,43.151,-77.62365,14608,120000,5,2,53,2230,3920.4,sqft,MULTI_FAMILY,Listing by: Hunt Real Estate ERA/Columbus
30865144,Lorenzo St,Rochester,NY,43.158176,-77.64561,14611,45000,2,1,48,929,4647.852,sqft,SINGLE_FAMILY,Listing by: Howard Hanna
30850945,Lake Ave,Rochester,NY,43.190666,-77.6293,14613,199900,5,3,94,2122,6098.4,sqft,MULTI_FAMILY,Listing by: RE/MAX Plus
30883772,Melrose St,Rochester,NY,43.138294,-77.63987,14619,299000,4,2,108,2762,5201.064,sqft,SINGLE_FAMILY,Listing by: Listwithfreedom.com
2065654423,Dewey Ave,Rochester,NY,43.17744,-77.63969,14613,85000,4,2,38,2205,5662.8,sqft,MULTI_FAMILY,Listing by: Howard Hanna
30861235,Curtis St,Rochester,NY,43.173332,-77.64601,14606,78000,3,1,84,918,3301.848,sqft,SINGLE_FAMILY,Listing by: Hunt Real Estate ERA/Columbus
30884775,Broadway,Rochester,NY,43.14915,-77.60165,14607,239900,3,3,131,1831,4530.24,sqft,MULTI_FAMILY,Listing by: Howard Hanna
30893069,Midvale Ter,Rochester,NY,43.134098,-77.65224,14619,147777,3,2,112,1319,4399.56,sqft,SINGLE_FAMILY,Listing by: Howard Hanna
30879102,West Ave,Rochester,NY,43.14967,-77.64945,14611,107000,4,2,45,2332,7697.052,sqft,MULTI_FAMILY,Listing by: Keller Williams Realty Greater Rochester
30863307,Cameron St,Rochester,NY,43.166504,-77.64013,14606,55000,,0,24,2276,6830.208,sqft,MULTI_FAMILY,Listing by: Keller Williams Realty Greater Rochester
30879413,Kenwood Ave,Rochester,NY,43.14674,-77.63987,14611,84000,3,2,44,1882,5327.388,sqft,SINGLE_FAMILY,Listing by: Keller Williams Realty Greater Rochester
30857346,Remington St,Rochester,NY,43.182217,-77.611206,14621,35000,3,1,22,1590,3645.972,sqft,SINGLE_FAMILY,Listing by: Keller Williams Realty Greater Rochester
30862411,Saratoga Ave,Rochester,NY,43.1693,-77.63321,14608,55000,4,2,34,1588,7265.808,sqft,MULTI_FAMILY,Listing by: Keller Williams Realty Greater Rochester
2101279940,Anthony St,Rochester,NY,43.13666,-77.64975,14619,87000,4,2,41,2088,5998.212,sqft,MULTI_FAMILY,Listing by: Keller Williams Realty Greater Rochester
2091255461,Cleon St,Rochester,NY,43.183464,-77.59675,14621,75000,4,2,47,1568,5100.876,sqft,MULTI_FAMILY,Listing by: Keller Williams Realty Greater Rochester
30855791,Van Stallen St,Rochester,NY,43.184402,-77.60597,14621,45000,4,2,26,1704,4774.176,sqft,SINGLE_FAMILY,Listing by: Keller Williams Realty Greater Rochester
30849562,Primrose St,Rochester,NY,43.195454,-77.63289,14615,79900,3,2,66,1194,3998.808,sqft,SINGLE_FAMILY,Listing by: Keller Williams Realty Greater Rochester
30861273,Michigan St,Rochester,NY,43.172565,-77.64637,14606,49900,4,2,32,1518,4621.716,sqft,SINGLE_FAMILY,Listing by: Hunt Real Estate ERA/Columbus
30893084,Midvale Ter,Rochester,NY,43.13407,-77.65449,14619,125000,3,2,98,1266,4399.56,sqft,SINGLE_FAMILY,Listing by: Agency 1 LLC
30854983,Portland Ave,Rochester,NY,43.185543,-77.58423,14621,119500,4,2,74,1600,3898.62,sqft,SINGLE_FAMILY,Listing by: Colin Dombek Realty Inc
2065686064,Magee Ave,Rochester,NY,43.19022,-77.638,14613,139900,6,2,48,2893,6216.012,sqft,MULTI_FAMILY,Listing by: One Seven Realty Inc
30881667,Bartlett St,Rochester,NY,43.1426,-77.632095,14611,42900,4,1,27,1540,3127.608,sqft,SINGLE_FAMILY,Listing by: Hunt Real Estate ERA/Columbus
2065692633,Costar St #47,Rochester,NY,43.16862,-77.6329,14608,39900,2,2,31,1275,4356,sqft,SINGLE_FAMILY,Listing by: RE/MAX Realty Group
30862354,Bauer St,Rochester,NY,43.171204,-77.640305,14606,55000,3,1,39,1389,5227.2,sqft,SINGLE_FAMILY,Listing by: RE/MAX Realty Group
30894168,Brooks Ave,Rochester,NY,43.130672,-77.65305,14619,109000,5,2,77,1407,4800.312,sqft,SINGLE_FAMILY,Listing by: Howard Hanna
30860310,Kay Ter,Rochester,NY,43.178787,-77.633354,14613,119900,4,1,82,1460,4800.312,sqft,SINGLE_FAMILY,Listing by: Howard Hanna
30860127,Brooklyn St,Rochester,NY,43.177326,-77.63728,14613,99900,4,1,66,1493,1942.776,sqft,SINGLE_FAMILY,Listing by: Howard Hanna
2065723129,S Plymouth Ave,Rochester,NY,43.13722,-77.62542,14608,199900,1,4,46,4320,5262.048,sqft,MULTI_FAMILY,Listing by: Elevate Realty Group
2102317141,Dewey Ave,Rochester,NY,43.175453,-77.63916,14613,74900,6,2,27,2696,3484.8,sqft,MULTI_FAMILY,Listing by: RE/MAX Realty Group
30868671,Quamina Dr,Rochester,NY,43.17191,-77.60623,14605,45900,4,2,38,1200,3998.808,sqft,SINGLE_FAMILY,Listing by: RE/MAX Realty Group
30878301,Colvin St,Rochester,NY,43.15475,-77.641396,14611,49900,4,1,35,1395,2613.6,sqft,SINGLE_FAMILY,Listing by: RE/MAX Realty Group
30860178,Lexington Ave,Rochester,NY,43.179096,-77.63667,14613,89900,3,1,97,918,3188.592,sqft,SINGLE_FAMILY,Listing by: Howard Hanna
30855553,Borchard St,Rochester,NY,43.1844,-77.61134,14621,59900,3,1,43,1371,4791.6,sqft,SINGLE_FAMILY,Listing by: RE/MAX Realty Group
30880648,Cady St,Rochester,NY,43.14605,-77.62846,14608,59900,2,1,68,875,8276.4,sqft,SINGLE_FAMILY,Listing by: RE/MAX Realty Group
30880521,Cady St,Rochester,NY,43.14607,-77.632286,14611,34900,3,1,44,793,3920.4,sqft,SINGLE_FAMILY,Listing by: RE/MAX Realty Group
30888463,Beaufort St,Rochester,NY,43.138885,-77.59266,14620,80000,2,1,75,1066,3049.2,sqft,SINGLE_FAMILY,Listing by: Revolution Real Estate
30861920,Sunset St,Rochester,NY,43.1694,-77.65484,14606,89900,2,1,124,720,3920.4,sqft,SINGLE_FAMILY,Listing by: RE/MAX Plus
30862447,Bloss St,Rochester,NY,43.170437,-77.62953,14608,48000,2,1,42,1128,3149.388,sqft,SINGLE_FAMILY,Listing by: Kapic Realty
2067241684,Bernard St,Rochester,NY,43.17713,-77.59238,14621,79900,5,2,45,1741,5309.964,sqft,SINGLE_FAMILY,Listing by: Kapic Realty
30894194,Ernestine St,Rochester,NY,43.131485,-77.65191,14619,79900,3,1,66,1196,4356,sqft,SINGLE_FAMILY,Listing by: Keller Williams Realty Greater Rochester
30852406,Driving Park Ave,Rochester,NY,43.18114,-77.63633,14613,72800,4,2,38,1904,3519.648,sqft,MULTI_FAMILY,Listing by: Keller Williams Realty Greater Rochester
2065737324,Dayton St,Rochester,NY,43.18164,-77.601555,14621,93900,6,3,41,2288,3920.4,sqft,MULTI_FAMILY,Listing by: RE/MAX Realty Group
30895093,Terrace Park,Rochester,NY,43.129818,-77.64292,14619,164007,3,1,136,1200,5641.02,sqft,SINGLE_FAMILY,Listing by: Berkshire Hathaway HS Discover
30882370,Thurston Rd,Rochester,NY,43.138847,-77.650604,14619,110000,,0,29,3699,8333.028,sqft,MULTI_FAMILY,Listing by: Rise Real Estate Services LLC
30881817,Bartlett St,Rochester,NY,43.143074,-77.62409,14608,59900,3,2,64,930,4356,sqft,SINGLE_FAMILY,Listing by: RE/MAX Realty Group
30896952,Azalea Rd,Rochester,NY,43.127262,-77.60529,14620,199999,3,2,182,1096,10876.932,sqft,SINGLE_FAMILY,Listing by: RESULTS REALTORS
2066716579,Brown St,Rochester,NY,,,14611,99000,7,3,43,2299,6503.508,sqft,MULTI_FAMILY,Listing by: Rise Real Estate Services LLC
30856313,Skylane Dr,Rochester,NY,43.18349,-77.594284,14621,119900,3,1,95,1256,5187.996,sqft,SINGLE_FAMILY,Listing by: Babbitt Realty
30867662,Barons St,Rochester,NY,43.174618,-77.601135,14605,52900,2,1,66,792,4791.6,sqft,SINGLE_FAMILY,Listing by: RE/MAX Realty Group
30880688,Champlain St,Rochester,NY,43.14448,-77.62673,14608,57900,4,1,38,1504,4656.564,sqft,SINGLE_FAMILY,Listing by: Howard Hanna
60033127,Tremont Cir,Rochester,NY,43.147575,-77.617714,14608,255000,5,4,55,4625,7840.8,sqft,SINGLE_FAMILY,Listing by: Goodman Realty
30888945,Rockingham St,Rochester,NY,43.136604,-77.60525,14620,199900,2,3,113,1765,3698.244,sqft,MULTI_FAMILY,Listing by: Elevate Realty Group
30888403,Asbury St,Rochester,NY,43.138126,-77.59154,14620,119900,4,2,75,1590,3049.2,sqft,SINGLE_FAMILY,Listing by: RE/MAX Realty Group
30853311,Tyler St,Rochester,NY,43.189365,-77.61738,14621,82500,4,2,49,1664,,,SINGLE_FAMILY,Listing by: Keller Williams Realty Greater Rochester
30857405,Pardee St,Rochester,NY,43.181442,-77.609406,14621,59900,5,2,52,1146,3602.412,sqft,SINGLE_FAMILY,Listing by: Yellow Rose Real Property
30853450,Klein St,Rochester,NY,43.189526,-77.60395,14621,84900,2,1,113,748,5161.86,sqft,SINGLE_FAMILY,Listing by: R Realty Rochester LLC
30852919,E Ridge Rd,Rochester,NY,43.19319,-77.61606,14621,150000,5,3,74,2003,7000.092,sqft,SINGLE_FAMILY,Listing by: Keller Williams Realty Greater Rochester
2094531573,7 Nelson St,Rochester,NY,43.140186,-77.5915,14620,534777,12,4,79,6768,6969.6,sqft,MULTI_FAMILY,Listing by: Revolution Real Estate
30863230,Woodrow St,Rochester,NY,43.167747,-77.63704,14606,56500,3,1,49,1134,4068.504,sqft,SINGLE_FAMILY,Listing by: Kapic Realty
2068759251,Roycroft Dr,Rochester,NY,43.181755,-77.59364,14621,59900,4,2,35,1664,2591.82,sqft,MULTI_FAMILY,Listing by: Keller Williams Realty Greater Rochester
30883400,Raeburn Ave,Rochester,NY,43.136448,-77.65255,14619,124900,3,1,88,1406,4299.372,sqft,SINGLE_FAMILY,"Listing by: Debbie Fisher Hometown Realty, LLC"
30877822,Colvin St,Rochester,NY,43.155846,-77.64155,14611,34900,3,1,26,1329,7461.828,sqft,SINGLE_FAMILY,Listing by: Hunt Real Estate ERA/Columbus
30882330,Colgate St,Rochester,NY,43.140392,-77.64876,14619,24900,2,2,18,1366,4839.516,sqft,SINGLE_FAMILY,Listing by: Howard Hanna
30861295,227 Michigan St,Rochester,NY,43.1721,-77.64609,14606,134900,6,2,60,2240,4791.6,sqft,MULTI_FAMILY,Listing by: Howard Hanna
30862587,Sunset St,Rochester,NY,43.167904,-77.65541,14606,119900,3,1,103,1153,4356,sqft,SINGLE_FAMILY,Listing by: Keller Williams Realty Greater Rochester
30860125,Brooklyn St,Rochester,NY,43.177586,-77.63742,14613,74900,4,2,34,2178,6089.688,sqft,MULTI_FAMILY,Listing by: Keller Williams Realty Greater Rochester
30885732,Dr Samuel McCree Way,Rochester,NY,43.146374,-77.61934,14608,189900,3,2,132,1438,4791.6,sqft,SINGLE_FAMILY,Listing by: Howard Hanna
30861096,Isabelle St,Rochester,NY,43.17167,-77.65243,14606,55000,3,2,74,741,6298.776,sqft,SINGLE_FAMILY,Listing by: Blue Arrow Real Estate
30854981,Portland Ave,Rochester,NY,43.18573,-77.584335,14621,89900,4,2,55,1608,3898.62,sqft,MULTI_FAMILY,Listing by: RE/MAX Realty Group
30893383,W High Ter,Rochester,NY,43.13552,-77.642265,14619,99900,3,1,62,1588,4356,sqft,SINGLE_FAMILY,Listing by: Keller Williams Realty Greater Rochester
237388006,University Ave,Rochester,NY,43.160324,-77.59883,14605,249000,3,3,38,6552,2556.972,sqft,MULTI_FAMILY,Listing by: North Star Real Estate
30851922,Fairview Hts,Rochester,NY,43.184116,-77.6336,14613,124000,3,2,49,2502,6926.04,sqft,MULTI_FAMILY,Listing by: Coldwell Banker Custom Realty
237373323,Berlin St,Rochester,NY,43.17933,-77.6027,14621,28500,5,2,14,2008,,,MULTI_FAMILY,Listing by: Keller Williams Realty Greater Rochester
30849010,Fox St,Rochester,NY,43.195248,-77.65242,14615,129900,3,1,102,1266,5998.212,sqft,SINGLE_FAMILY,Listing by: North Star Real Estate
30852126,Selye Ter,Rochester,NY,43.18198,-77.64273,14613,139900,4,2,85,1629,4599.936,sqft,SINGLE_FAMILY,Listing by: Howard Hanna
30880122,Ringle St,Rochester,NY,43.144646,-77.6493,14619,109900,3,1,70,1550,7004.448,sqft,SINGLE_FAMILY,"Listing by: Lighthouse Management, LLC"
237370821,Dorbeth Rd,Rochester,NY,43.182415,-77.62034,14621,64900,3,2,54,1197,3049.2,sqft,SINGLE_FAMILY,Listing by: RE/MAX Realty Group
30894599,Brooks Ave,Rochester,NY,43.13074,-77.64164,14619,112000,2,1,102,1097,5118.3,sqft,SINGLE_FAMILY,Listing by: Blue Axis
2080269422,Driving Park Ave,Rochester,NY,43.181038,-77.645615,14613,129900,4,2,40,3183,3920.4,sqft,SINGLE_FAMILY,Listing by: RE/MAX Realty Group
30878336,Child St,Rochester,NY,43.154892,-77.63858,14611,42000,2,1,50,828,4090.284,sqft,SINGLE_FAMILY,Listing by: Keller Williams Realty Greater Rochester
2066408390,Van Stallen St,Rochester,NY,43.18484,-77.60409,14621,80000,4,3,39,2018,4813.38,sqft,MULTI_FAMILY,Listing by: Keller Williams Realty Greater Rochester
30866676,Bernard St,Rochester,NY,43.177124,-77.59279,14621,59900,4,2,31,1893,5309.964,sqft,SINGLE_FAMILY,Listing by: Keller Williams Realty Greater Rochester
30854101,Norton St,Rochester,NY,43.18605,-77.62025,14621,74900,8,3,27,2682,6390.252,sqft,MULTI_FAMILY,Listing by: Keller Williams Realty Greater Rochester
30857865,Roycroft Dr,Rochester,NY,43.18137,-77.59655,14621,64900,3,2,59,1096,2591.82,sqft,SINGLE_FAMILY,Listing by: Revolution Real Estate
30889289,Goodman St S,Rochester,NY,43.136284,-77.59842,14620,189900,4,1,133,1421,4900.5,sqft,SINGLE_FAMILY,Listing by: RE/MAX Plus
30886280,Edmonds St,Rochester,NY,43.144295,-77.59417,14607,174900,4,2,96,1818,2914.164,sqft,MULTI_FAMILY,Listing by: Howard Hanna
30859891,Curlew St,Rochester,NY,43.177185,-77.6486,14613,49900,2,1,47,1040,4774.176,sqft,SINGLE_FAMILY,Listing by: Rise Real Estate Services LLC
30856718,Randolph St,Rochester,NY,43.182224,-77.58388,14621,149900,3,2,126,1186,5022.468,sqft,SINGLE_FAMILY,Listing by: Hunt Real Estate ERA/Columbus
30854110,189 Norton St,Rochester,NY,43.186085,-77.618866,14621,72900,6,2,27,2655,6098.4,sqft,MULTI_FAMILY,Listing by: Keller Williams Realty Greater Rochester
30853189,Saint Paul St,Rochester,NY,43.189175,-77.62033,14621,79900,4,2,36,2216,9583.2,sqft,MULTI_FAMILY,Listing by: Keller Williams Realty Greater Rochester
30848577,Lion St,Rochester,NY,43.197014,-77.65434,14615,119900,4,2,90,1321,9801,sqft,SINGLE_FAMILY,Listing by: Coldwell Banker Custom Realty
30857349,Kohlman St,Rochester,NY,43.18209,-77.6116,14621,64900,4,1,46,1404,5227.2,sqft,SINGLE_FAMILY,Listing by: Keller Williams Realty Greater Rochester
30894199,Ernestine St,Rochester,NY,43.131866,-77.65189,14619,109900,3,1,104,1056,4399.56,sqft,SINGLE_FAMILY,Listing by: Keller Williams Realty Greater Rochester
30867912,Clifford Ave,Rochester,NY,43.175205,-77.59323,14621,39900,4,1,32,1215,3959.604,sqft,SINGLE_FAMILY,Listing by: RE/MAX Realty Group
30856064,Kosciusko St,Rochester,NY,43.18499,-77.597176,14621,40000,4,2,42,950,3449.952,sqft,MULTI_FAMILY,Listing by: Hunt Real Estate ERA/Columbus
30869473,Galusha St,Rochester,NY,43.169914,-77.61602,14605,70000,3,2,38,1797,8581.32,sqft,MULTI_FAMILY,Listing by: RE/MAX Plus
237384616,Clifford Ave,Rochester,NY,43.175808,-77.58596,14621,124777,4,3,19,6384,4791.6,sqft,SINGLE_FAMILY,Listing by: Revolution Real Estate
2066586674,3 Renwood St,Rochester,NY,,,14621,67500,4,2,31,2148,5179.284,sqft,MULTI_FAMILY,Listing by: Keller Williams Realty Greater Rochester
237404514,Meigs St,Rochester,NY,43.1466,-77.59543,14607,149900,3,3,57,2602,6995.736,sqft,MULTI_FAMILY,Listing by: Blue Axis
30865627,Orange St,Rochester,NY,43.158092,-77.6276,14608,64900,5,3,29,2200,5196.708,sqft,MULTI_FAMILY,Listing by: RIC Home Improvement LLC
30885333,Meigs St,Rochester,NY,43.147514,-77.59404,14607,239900,3,3,117,2036,5989.5,sqft,MULTI_FAMILY,Listing by: Howard Hanna
30886729,Seward St,Rochester,NY,43.142292,-77.622734,14608,30000,4,1,19,1528,4791.6,sqft,SINGLE_FAMILY,Listing by: Keller Williams Realty Greater Rochester
30870848,Union St N,Rochester,NY,43.160454,-77.59417,14605,115000,3,2,91,1261,4791.6,sqft,SINGLE_FAMILY,Listing by: RE/MAX Plus
30861912,Glide St,Rochester,NY,43.169064,-77.65446,14606,124900,3,1,107,1166,4098.996,sqft,SINGLE_FAMILY,Listing by: Kuppinger Realty
30893832,83 Stratford Park,Rochester,NY,43.134212,-77.63355,14611,115000,4,2,55,2064,2421.936,sqft,MULTI_FAMILY,Listing by: Hunt Real Estate ERA/Columbus
30862986,Austin St,Rochester,NY,43.167492,-77.64364,14606,64900,4,2,34,1860,4678.344,sqft,MULTI_FAMILY,"Listing by: High Falls Real Estate Co, Inc"
30884870,Meigs St,Rochester,NY,43.150887,-77.5929,14607,199900,2,2,154,1292,4477.968,sqft,MULTI_FAMILY,"Listing by: Lighthouse Management, LLC"
30882265,Marlborough Rd,Rochester,NY,43.139297,-77.652504,14619,149900,3,2,92,1621,4865.652,sqft,SINGLE_FAMILY,Listing by: Mark F. Piccarreto
30862067,Burrows St,Rochester,NY,43.16927,-77.64917,14606,74900,4,2,52,1416,5662.8,sqft,SINGLE_FAMILY,Listing by: RE/MAX Realty Group
2066572117,Lincoln Ave #186,Rochester,NY,43.14608,-77.65551,14611,73900,6,2,32,2278,4791.6,sqft,MULTI_FAMILY,Listing by: RE/MAX Realty Group
237383001,Portland Ave,Rochester,NY,43.177265,-77.59035,14621,129900,6,4,29,4446,3001.284,sqft,MULTI_FAMILY,"Listing by: Key Property Ventures, LLC"
30861390,Curtis St,Rochester,NY,43.17326,-77.6424,14606,59900,3,1,42,1421,4356,sqft,SINGLE_FAMILY,Listing by: Keller Williams Realty Greater Rochester
2066596808,Madison St,Rochester,NY,43.15304,-77.62808,14608,625000,4,4,141,4424,6725.664,sqft,MULTI_FAMILY,Listing by: Keller Williams Realty Greater Rochester
237396774,S Madison Park,Rochester,NY,43.15373,-77.62723,14608,625000,8,4,94,6600,6747.444,sqft,MULTI_FAMILY,Listing by: Keller Williams Realty Greater Rochester
2066597537,125 129 Holworthy St,Rochester,NY,43.160618,-77.651115,14606,14995,,0,,,0.33,acres,LOT,Listing by: Keller Williams Realty Greater Rochester
2087660964,Columbia Ave,Rochester,NY,43.141415,-77.62757,14608,69900,6,2,33,2105,4791.6,sqft,MULTI_FAMILY,Listing by: Hunt Real Estate ERA/Columbus
30856026,62 Laser St,Rochester,NY,43.18268,-77.60343,14621,113000,6,2,51,2186,6969.6,sqft,MULTI_FAMILY,"Listing by: eXp Realty, LLC"
30883961,Shelter St,Rochester,NY,43.138668,-77.63403,14611,129900,6,2,53,2435,6738.732,sqft,SINGLE_FAMILY,Listing by: Keller Williams Realty Greater Rochester
30866524,Saint Jacob St,Rochester,NY,43.178326,-77.59195,14621,79900,3,1,61,1300,4255.812,sqft,SINGLE_FAMILY,Listing by: Keller Williams Realty Greater Rochester
30885129,Frederick Douglass St,Rochester,NY,43.148067,-77.61432,14608,305000,2,2,226,1346,1049.796,sqft,TOWNHOUSE,Listing by: Howard Hanna
30862921,Otis St,Rochester,NY,43.16878,-77.64542,14606,120000,4,2,84,1428,4438.764,sqft,SINGLE_FAMILY,"Listing by: NORCHAR, LLC"
30861506,Villa St,Rochester,NY,43.17181,-77.64404,14606,74900,4,2,31,2365,,,MULTI_FAMILY,Listing by: Keller Williams Realty Greater Rochester
2066670398,Congress Ave,Rochester,NY,43.129368,-77.63742,14611,105000,4,2,46,2278,5218.488,sqft,MULTI_FAMILY,Listing by: Keller Williams Realty Greater Rochester
237399450,Arnett Blvd,Rochester,NY,43.14252,-77.65218,14619,134900,3,1,64,2088,5227.2,sqft,SINGLE_FAMILY,Listing by: Howard Hanna
2066673250,Jay St,Rochester,NY,43.159527,-77.62873,14608,165000,8,4,30,5326,2962.08,sqft,MULTI_FAMILY,Listing by: RE/MAX Realty Group
2098980262,Fairbanks St,Rochester,NY,43.18235,-77.60068,14621,69900,4,2,48,1456,3049.2,sqft,MULTI_FAMILY,Listing by: RE/MAX Realty Group
30880052,Sherwood Ave,Rochester,NY,43.145607,-77.646645,14619,84900,4,3,44,1888,5662.8,sqft,MULTI_FAMILY,Listing by: RE/MAX Realty Group
2095485325,Dewey Ave,Rochester,NY,43.185837,-77.639175,14613,79900,5,2,32,2480,5662.8,sqft,MULTI_FAMILY,Listing by: RE/MAX Realty Group
2080268778,Weld St,Rochester,NY,43.1638,-77.60039,14605,114900,10,4,24,4725,3920.4,sqft,MULTI_FAMILY,Listing by: RE/MAX Realty Group
30863721,Warner St,Rochester,NY,43.165634,-77.644135,14606,114900,4,2,58,1980,7501.032,sqft,SINGLE_FAMILY,Listing by: Keller Williams Realty Greater Rochester
30884150,Cottage St,Rochester,NY,43.136208,-77.63122,14611,64000,4,2,40,1578,4996.332,sqft,SINGLE_FAMILY,Listing by: Keller Williams Realty Greater Rochester
30861406,Emerson St,Rochester,NY,43.17365,-77.641174,14613,60000,4,1,41,1436,3519.648,sqft,SINGLE_FAMILY,Listing by: RE/MAX Plus
30860199,222 Glenwood Ave,Rochester,NY,43.177223,-77.63557,14613,79900,4,2,39,2016,6059.196,sqft,MULTI_FAMILY,Listing by: New 2 U Homes LLC
30886735,118 Columbia Ave,Rochester,NY,43.14199,-77.62362,14608,64900,5,4,19,3266,,,MULTI_FAMILY,Listing by: Keller Williams Realty Greater Rochester
30879263,Somerset St,Rochester,NY,43.14892,-77.64478,14611,64900,4,1,35,1830,6089.688,sqft,SINGLE_FAMILY,Listing by: RE/MAX Realty Group
2067242476,Pierpont St,Rochester,NY,43.184544,-77.63739,14613,108000,6,2,40,2642,4822.092,sqft,MULTI_FAMILY,Listing by: Howard Hanna
30863661,Avery St,Rochester,NY,43.1654,-77.65057,14606,149900,5,3,48,3089,0.3971,acres,MULTI_FAMILY,Listing by: Rosenbloom Properties Corp.
30895520,Genesee Park Blvd,Rochester,NY,43.126637,-77.64559,14619,143000,5,1,90,1586,4917.924,sqft,SINGLE_FAMILY,Listing by: Summerrain Realty Group
30870744,Weld St,Rochester,NY,43.162956,-77.59942,14605,54999,6,2,19,2832,4791.6,sqft,MULTI_FAMILY,Listing by: Better Homes and Gardens Real Estate Prosperity
30879403,Kenwood Ave,Rochester,NY,43.14886,-77.63923,14611,149900,7,3,62,2410,3044.844,sqft,MULTI_FAMILY,Listing by: Blue Arrow Real Estate
30883315,95 Penhurst St,Rochester,NY,43.137627,-77.653755,14619,109900,4,2,62,1758,4800.312,sqft,MULTI_FAMILY,Listing by: RE/MAX Realty Group
30862849,Avery St,Rochester,NY,43.167103,-77.65051,14606,124900,3,2,99,1252,6342.336,sqft,SINGLE_FAMILY,Listing by: Howard Hanna
30850058,Clay Ave,Rochester,NY,43.19144,-77.64409,14613,107000,3,2,74,1428,4778.532,sqft,MULTI_FAMILY,Listing by: Hunt Real Estate ERA/Columbus
237364539,(undisclosed Address),Rochester,NY,,,14615,159777,4,2,27,5869,3541.428,sqft,MULTI_FAMILY,Listing by: Howard Hanna
30899824,Eldridge Ave,Rochester,NY,43.130318,-77.59218,14620,199900,1,1,499,400,0.28,acres,LOT,Listing by: Howard Hanna
30881239,Normandy Ave,Rochester,NY,43.142967,-77.64436,14619,99900,4,1,61,1624,5658.444,sqft,SINGLE_FAMILY,Listing by: RE/MAX Realty Group
30870176,5th St,Rochester,NY,43.16761,-77.58384,14605,78000,5,1,54,1422,4800.312,sqft,SINGLE_FAMILY,Listing by: Howard Hanna
30870089,4th St,Rochester,NY,43.167816,-77.584305,14605,29900,4,2,12,2395,4800.312,sqft,MULTI_FAMILY,Listing by: Home Safari Ltd
30851563,Birr St,Rochester,NY,43.185005,-77.643524,14613,74900,5,2,23,3205,5370.948,sqft,MULTI_FAMILY,Listing by: Home Safari Ltd
30854133,Carthage St,Rochester,NY,43.18509,-77.61916,14621,79900,4,1,58,1375,3998.808,sqft,SINGLE_FAMILY,Listing by: Howard Hanna
30862328,Sherman St,Rochester,NY,43.17058,-77.63911,14606,64900,5,2,36,1796,4687.056,sqft,MULTI_FAMILY,Listing by: Keller Williams Realty Greater Rochester
2077981347,Hudson Ave,Rochester,NY,43.184498,-77.5991,14621,149900,8,4,34,4320,4290.66,sqft,MULTI_FAMILY,Listing by: RE/MAX Realty Group
30863988,Saratoga Ave,Rochester,NY,43.163597,-77.627235,14608,69900,5,2,60,1160,2178,sqft,MULTI_FAMILY,Listing by: RE/MAX Plus
2067358630,Placid Pl,Rochester,NY,43.170605,-77.639946,14606,68500,3,1,65,1050,1559.448,sqft,SINGLE_FAMILY,Listing by: Voyage Realty Group
30862906,Burrows St,Rochester,NY,43.166523,-77.64825,14606,89900,3,2,69,1302,7000.092,sqft,SINGLE_FAMILY,Listing by: Hunt Real Estate ERA/Columbus
30879894,Garfield St,Rochester,NY,43.145744,-77.65427,14611,79900,3,1,63,1260,5079.096,sqft,SINGLE_FAMILY,Listing by: Hunt Real Estate ERA/Columbus
30863544,Glide St,Rochester,NY,43.165432,-77.65445,14606,50500,2,1,62,805,3998.808,sqft,SINGLE_FAMILY,Listing by: Colleen M. Burke
30879272,Somerset St,Rochester,NY,43.1487,-77.64556,14611,55000,4,2,28,1946,6098.4,sqft,SINGLE_FAMILY,Listing by: Keller Williams Realty Greater Rochester
2067457479,Virginia Ave,Rochester,NY,43.12926,-77.646736,14619,89900,3,1,66,1344,4800.312,sqft,SINGLE_FAMILY,Listing by: RIC Home Improvement LLC
30887603,Flora St,Rochester,NY,43.14059,-77.62001,14608,65900,3,1,69,950,2400.156,sqft,SINGLE_FAMILY,Listing by: CF Property Ventures Inc.
30895682,Winbourne Rd,Rochester,NY,43.125717,-77.64539,14619,149000,3,1,108,1376,4800.312,sqft,SINGLE_FAMILY,Listing by: Homelister
30865940,Avenue A,Rochester,NY,43.177597,-77.61697,14621,15000,4,2,6,2334,4356,sqft,MULTI_FAMILY,Listing by: RE/MAX Realty Group
30863956,Plymouth Ave N,Rochester,NY,43.16505,-77.626816,14608,23900,3,1,26,897,2683.296,sqft,SINGLE_FAMILY,Listing by: Keller Williams Realty Greater Rochester
30870130,3rd St,Rochester,NY,43.16722,-77.586075,14605,59900,4,2,31,1920,4791.6,sqft,MULTI_FAMILY,Listing by: Nationwide Homes Realty
30850743,Electric Ave,Rochester,NY,43.190624,-77.63695,14613,79989,3,1,51,1539,3981.384,sqft,SINGLE_FAMILY,Listing by: Beverly McMillon Realty
2067607653,Ridgeway Ave,Rochester,NY,43.19352,-77.63633,14615,149900,5,4,45,3308,8049.888,sqft,MULTI_FAMILY,Listing by: Keller Williams Realty Greater Rochester
30854984,Portland Ave,Rochester,NY,43.18541,-77.58432,14621,59900,3,2,38,1552,,,SINGLE_FAMILY,Listing by: Keller Williams Realty Greater Rochester
30889439,Asbury St,Rochester,NY,43.137997,-77.593,14620,214900,3,2,103,2083,3301.848,sqft,MULTI_FAMILY,Listing by: RE/MAX Realty Group
2073245318,Watkin Ter,Rochester,NY,43.174427,-77.59748,14605,44995,4,2,21,2134,4939.704,sqft,MULTI_FAMILY,Listing by: One Seven Realty Inc
30857515,Avenue D,Rochester,NY,43.18036,-77.60941,14621,64900,5,2,38,1687,3998.808,sqft,SINGLE_FAMILY,Listing by: Coldwell Banker Custom Realty
103752419,Dunn St,Rochester,NY,43.191296,-77.598694,14621,9500,,0,,,4800.312,sqft,LOT,Listing by: RE/MAX Realty Group
30880321,Wellington Ave,Rochester,NY,43.144253,-77.641136,14611,156900,4,4,67,2328,6786.648,sqft,SINGLE_FAMILY,Listing by: New 2 U Homes LLC
30867569,Thomas St,Rochester,NY,43.175495,-77.60468,14621,90000,5,2,51,1760,2178,sqft,MULTI_FAMILY,Listing by: Howard Hanna
2067895284,Post Ave,Rochester,NY,43.145523,-77.64781,14612,369900,3,2,230,1608,,,SINGLE_FAMILY,Listing by: Howard Hanna
2067453021,141 Spencer St,Rochester,NY,43.16587,-77.62584,14608,1440000,,0,40,35836,6599.34,sqft,MULTI_FAMILY,"Listing by: Key Property Ventures, LLC"
30885331,Rowley St,Rochester,NY,43.147038,-77.593636,14607,225000,4,2,107,2089,4791.6,sqft,MULTI_FAMILY,Listing by: Keller Williams Realty Greater Rochester
30870396,Woodward St,Rochester,NY,43.163795,-77.597046,14605,58950,4,2,33,1767,5418.864,sqft,MULTI_FAMILY,"Listing by: Realty Home Advisors of New York, LLC"
30865309,Kondolf St,Rochester,NY,43.160183,-77.63819,14606,64000,4,1,39,1623,3367.188,sqft,SINGLE_FAMILY,Listing by: Berkshire Hathaway HS Discover
30864965,Dakota St,Rochester,NY,43.15895,-77.65306,14611,55900,5,2,56,998,4804.668,sqft,SINGLE_FAMILY,Listing by: Voyage Realty Group
30894115,Genesee Park Blvd,Rochester,NY,43.132927,-77.65461,14619,179900,3,2,86,2080,6298.776,sqft,MULTI_FAMILY,Listing by: Empire Realty Group
30882941,Flint St,Rochester,NY,43.139587,-77.62965,14611,77400,5,2,34,2256,9147.6,sqft,MULTI_FAMILY,Listing by: Keller Williams Realty Greater Rochester
30881730,Arnett Blvd,Rochester,NY,43.142124,-77.6334,14611,77400,4,2,40,1918,3402.036,sqft,MULTI_FAMILY,Listing by: Keller Williams Realty Greater Rochester
30862402,Saratoga Ave,Rochester,NY,43.169846,-77.633484,14608,34900,3,2,21,1620,2705.076,sqft,MULTI_FAMILY,Listing by: Keller Williams Realty Greater Rochester
30882403,Post Ave,Rochester,NY,43.14061,-77.64779,14619,110000,3,2,68,1604,4477.968,sqft,SINGLE_FAMILY,Listing by: Keller Williams Realty Greater Rochester
2076951984,Bloss St #94,Rochester,NY,43.17041,-77.631615,14608,70000,5,2,34,2004,3846.348,sqft,MULTI_FAMILY,Listing by: Keller Williams Realty Greater Rochester
30863488,Ambrose St,Rochester,NY,43.16643,-77.62694,14608,70000,6,2,28,2449,5279.472,sqft,MULTI_FAMILY,Listing by: Keller Williams Realty Greater Rochester
2068664674,E Arnett Blvd N,Rochester,NY,43.141888,-77.643974,14619,49900,4,2,23,2164,6259.572,sqft,SINGLE_FAMILY,Listing by: Howard Hanna
30861571,Locust St,Rochester,NY,43.174118,-77.63593,14613,59900,3,1,48,1240,4133.844,sqft,SINGLE_FAMILY,Listing by: Kapic Realty
2068815592,Burrows St,Rochester,NY,43.169125,-77.64825,14606,199900,3,1,37,5381,0.4038,acres,SINGLE_FAMILY,Listing by: One Seven Realty Inc
30895657,Genesee Park Blvd,Rochester,NY,43.12605,-77.64391,14619,139900,5,3,71,1946,4791.6,sqft,SINGLE_FAMILY,Listing by: RE/MAX Plus
2067363299,Danforth St,Rochester,NY,43.15193,-77.640564,14611,19000,3,1,15,1266,2613.6,sqft,SINGLE_FAMILY,Listing by: Keller Williams Realty Greater Rochester
2069082089,Plymouth Ave N,Rochester,NY,43.166008,-77.62695,14608,117500,7,3,42,2740,4356,sqft,MULTI_FAMILY,Listing by: Keller Williams Realty Greater Rochester
30863290,Myrtle Hill Park,Rochester,NY,43.16699,-77.63758,14606,50000,4,2,56,883,2652.804,sqft,SINGLE_FAMILY,Listing by: Platinum Prop & Asset Mgmt
30881802,Frost Ave,Rochester,NY,43.1435,-77.625206,14608,27900,4,2,15,1791,3946.536,sqft,MULTI_FAMILY,Listing by: Ellison Realty Services
30895135,Congress Ave,Rochester,NY,43.128864,-77.6447,14611,95000,3,2,51,1848,5601.816,sqft,MULTI_FAMILY,Listing by: Eastman Property Management
30851988,Northview Ter,Rochester,NY,43.183685,-77.62399,14621,79900,3,2,51,1560,3049.2,sqft,SINGLE_FAMILY,Listing by: Howard Hanna
30868071,1st St,Rochester,NY,43.174763,-77.58618,14605,74000,4,2,44,1681,4800.312,sqft,MULTI_FAMILY,Listing by: Howard Hanna
30857546,Hoff St,Rochester,NY,43.181847,-77.60447,14621,33500,4,2,16,1999,3920.4,sqft,MULTI_FAMILY,Listing by: Updegraff Group LLC
30855555,Borchard St,Rochester,NY,43.184387,-77.61161,14621,27600,4,2,18,1498,5227.2,sqft,MULTI_FAMILY,Listing by: Updegraff Group LLC
30869439,Oakman St,Rochester,NY,43.171196,-77.61522,14605,79900,4,2,40,1992,8712,sqft,SINGLE_FAMILY,Listing by: Keller Williams Realty Greater Rochester
30850685,Magee Ave,Rochester,NY,43.189816,-77.64183,14613,54000,8,3,28,1916,4356,sqft,MULTI_FAMILY,Listing by: Keller Williams Realty Gateway
30883994,Magnolia St,Rochester,NY,43.13818,-77.63011,14611,25000,3,1,21,1177,5183.64,sqft,SINGLE_FAMILY,Listing by: Platinum Prop & Asset Mgmt
30870573,Garson Ave,Rochester,NY,43.164715,-77.5844,14609,129900,5,3,56,2312,4791.6,sqft,MULTI_FAMILY,Listing by: Howard Hanna
2071190357,Dewey Ave,Rochester,NY,43.166016,-77.633446,14608,795000,,0,,,68,acres,LOT,Listing by: Canaan Realty
30886746,Averill Ave,Rochester,NY,43.143524,-77.61033,14620,39500,,0,,,6534,sqft,LOT,Listing by: Barrus Realty Corp
2071513969,Rohr St,Rochester,NY,43.174812,-77.58674,14605,45500,4,2,19,2308,5227.2,sqft,MULTI_FAMILY,Listing by: Updegraff Group LLC
2071514338,Frost Ave #410,Rochester,NY,43.144054,-77.630165,14611,39800,4,2,20,1924,4791.6,sqft,SINGLE_FAMILY,Listing by: Updegraff Group LLC
237370997,N Clinton Ave,Rochester,NY,43.18357,-77.61322,14621,40100,4,2,23,1692,9147.6,sqft,MULTI_FAMILY,Listing by: Updegraff Group LLC
30861982,Glide St,Rochester,NY,43.168835,-77.65388,14606,89900,3,1,77,1162,3794.076,sqft,SINGLE_FAMILY,Listing by: Mark F. Piccarreto
30853133,Baird St,Rochester,NY,43.19052,-77.592896,14621,89900,0,2,62,1440,4477.968,sqft,SINGLE_FAMILY,Listing by: Gul Realty Inc
30887193,Richard St,Rochester,NY,43.142117,-77.592926,14607,124500,2,1,119,1046,2957.724,sqft,SINGLE_FAMILY,Listing by: Better Homes and Gardens Real Estate Prosperity
30863802,Angle St,Rochester,NY,43.165607,-77.638145,14606,40900,2,1,47,868,7509.744,sqft,SINGLE_FAMILY,Listing by: Kapic Realty
30849794,La Grange Ave,Rochester,NY,43.191505,-77.65293,14615,89900,3,1,72,1233,5000.688,sqft,SINGLE_FAMILY,Listing by: Berkshire Hathaway HS Discover
237385284,778 N Clinton Ave,Rochester,NY,43.172646,-77.61227,14605,94900,3,2,19,4956,2774.772,sqft,SINGLE_FAMILY,Listing by: RE/MAX Realty Group
30895976,Vixette St,Rochester,NY,43.123665,-77.642815,14611,99000,2,1,86,1146,4800.312,sqft,SINGLE_FAMILY,Listing by: Romeo Realty Group Inc.
30879825,Prescott St,Rochester,NY,43.14495,-77.656654,14611,89900,3,1,75,1194,4800.312,sqft,SINGLE_FAMILY,Listing by: Keller Williams Realty Greater Rochester
30897094,Westview Ter,Rochester,NY,43.12359,-77.61657,14620,169900,3,1,160,1056,4356,sqft,SINGLE_FAMILY,Listing by: Updegraff Group LLC
30878096,Mount Read Blvd,Rochester,NY,43.15415,-77.65929,14611,69900,3,1,58,1204,5227.2,sqft,SINGLE_FAMILY,Listing by: Keller Williams Realty Greater Rochester
30892957,Westfield St,Rochester,NY,43.13454,-77.6575,14619,120000,2,1,105,1140,4800.312,sqft,SINGLE_FAMILY,Listing by: Ellison Realty Services
30883171,Genesee Park Blvd,Rochester,NY,43.137356,-77.65867,14619,154900,3,2,106,1456,6690.816,sqft,SINGLE_FAMILY,Listing by: RE/MAX Plus
30865020,Barker St,Rochester,NY,43.159042,-77.65622,14611,64900,2,1,81,800,3014.352,sqft,SINGLE_FAMILY,Listing by: RE/MAX Realty Group
30896000,Scottsville Rd,Rochester,NY,43.124123,-77.64284,14611,25000,2,1,18,1364,4800.312,sqft,SINGLE_FAMILY,Listing by: Hunt Real Estate ERA/Columbus
30879828,Lincoln Ave,Rochester,NY,43.14472,-77.656105,14611,89900,3,2,60,1492,3275.712,sqft,SINGLE_FAMILY,Listing by: Hunt Real Estate ERA/Columbus
30962346,Vollmer Pkwy,Rochester,NY,43.06274,-77.656235,14623,189900,3,2,140,1356,9600.624,sqft,SINGLE_FAMILY,Listing by: Howard Hanna
237492936,Cattaragus Dr,Rochester,NY,43.06734,-77.656654,14623,189900,2,1,139,1358,0.35,acres,SINGLE_FAMILY,Listing by: RE/MAX Plus
30914546,Genesee View Trl,Rochester,NY,43.08123,-77.69567,14623,144900,3,2,123,1173,2178,sqft,TOWNHOUSE,Listing by: Howard Hanna
